$GPGSV,3,1,12,02,23,264,17,03,24,043,37,06,49,291,24,09,13,126,17,1*69,1621322342805
$GPGSV,3,2,12,17,51,022,31,19,44,344,30,28,81,208,24,30,09,188,28,1*60,1621322342805
$GPGSV,3,3,12,04,07,094,,14,63,165,,22,00,000,,24,01,293,,1*64,1621322342805
$GPGSV,1,1,04,03,24,043,31,06,49,291,23,09,13,126,17,14,63,165,20,8*61,1621322342805
$GLGSV,2,1,08,86,33,008,22,77,23,313,18,76,49,253,21,87,17,296,31,1*71,1621322342805
$GLGSV,2,2,08,85,11,054,27,71,37,092,25,72,25,151,19,70,15,042,,1*7D,1621322342805
$GAGSV,3,1,10,13,49,352,28,15,18,046,27,21,57,285,21,26,30,279,22,7*7D,1621322342805
$GAGSV,3,2,10,01,14,319,,03,07,060,,07,15,161,,08,23,109,,7*7A,1621322342805
$GAGSV,3,3,10,27,49,181,,30,02,154,,7*73,1621322342805
$GAGSV,1,1,04,13,49,352,25,15,18,046,25,21,57,285,26,26,30,279,29,1*7F,1621322342805
$GQGSV,1,1,03,-191,39,119,16,-190,42,164,29,-189,57,052,25,1*42,1621322342805
$GQGSV,1,1,03,-191,39,119,14,-190,42,164,31,-189,57,052,24,8*41,1621322342805
$GBGSV,4,1,16,27,33,053,25,10,78,295,26,08,66,324,25,07,70,150,25,1*7D,1621322342805
$GBGSV,4,2,16,01,47,122,,02,46,234,,03,63,188,,04,33,108,,1*7B,1621322342805
$GBGSV,4,3,16,05,23,254,,06,06,168,,09,02,194,,13,59,272,,1*70,1621322342805
$GBGSV,4,4,16,16,04,174,,20,25,178,,29,12,293,,30,45,343,,1*7D,1621322342805
$GNGSA,A,3,03,06,17,19,30,,,,,,,,0.9,0.6,0.7,1*31,1621322342816
$GNGSA,A,3,86,87,,,,,,,,,,,0.9,0.6,0.7,2*3B,1621322342816
$GNGSA,A,3,13,15,,,,,,,,,,,0.9,0.6,0.7,3*3D,1621322342816
$GNGSA,A,3,27,,,,,,,,,,,,0.9,0.6,0.7,4*39,1621322342816
$GNGSA,A,3,01,02,03,,,,,,,,,,0.9,0.6,0.7,5*3D,1621322342816
$GNVTG,185.5,T,185.5,M,0.6,N,1.0,K,A*3A,1621322342816
$GNDTM,P90,,0000.000018,S,00000.000001,W,0.993,W84*47,1621322342816
$GNRMC,072028.00,A,2218.127509,N,11410.829896,E,0.6,185.5,180521,2.2,W,A,V*4C,1621322342816
$GNGNS,072028.00,2218.127509,N,11410.829896,E,AAAAAN,13,0.6,14.7,-1.2,,,V*0A,1621322342816
$GNGGA,072028.00,2218.127509,N,11410.829896,E,1,12,0.6,14.7,M,-1.2,M,,*54,1621322342816
$GPGSV,3,1,12,02,23,264,17,03,24,043,41,06,49,291,23,09,13,126,17,1*6F,1621322343800
$GPGSV,3,2,12,17,51,022,25,19,44,344,32,28,81,208,24,30,09,188,29,1*66,1621322343800
$GPGSV,3,3,12,04,07,094,,14,63,165,,22,00,000,,24,01,293,,1*64,1621322343800
$GPGSV,1,1,04,03,24,043,31,06,49,291,23,09,13,126,17,14,63,165,20,8*61,1621322343800
$GLGSV,2,1,08,86,33,008,22,77,23,313,18,76,49,253,21,87,17,296,26,1*77,1621322343800
$GLGSV,2,2,08,85,11,054,29,71,37,092,19,72,25,151,19,70,15,042,,1*7C,1621322343800
$GAGSV,3,1,10,13,49,352,27,15,18,046,28,21,57,285,20,26,30,279,22,7*7C,1621322343800
$GAGSV,3,2,10,01,14,319,,03,07,060,,07,15,161,,08,23,109,,7*7A,1621322343800
$GAGSV,3,3,10,27,49,181,,30,02,154,,7*73,1621322343800
$GAGSV,1,1,04,13,49,352,23,15,18,046,27,21,57,285,26,26,30,279,29,1*7B,1621322343800
$GQGSV,1,1,03,-191,39,119,16,-190,42,164,28,-189,57,052,26,1*40,1621322343800
$GQGSV,1,1,03,-191,39,119,14,-190,42,164,27,-189,57,052,24,8*46,1621322343800
$GBGSV,4,1,16,27,33,053,26,10,78,295,26,08,66,324,25,07,70,150,25,1*7E,1621322343800
$GBGSV,4,2,16,01,47,122,,02,46,234,,03,63,188,,04,33,108,,1*7B,1621322343800
$GBGSV,4,3,16,05,23,254,,06,06,168,,09,02,194,,13,59,272,,1*70,1621322343800
$GBGSV,4,4,16,16,04,174,,20,25,178,,29,12,293,,30,45,343,,1*7D,1621322343800
$GNGSA,A,3,03,17,19,30,,,,,,,,,0.9,0.6,0.7,1*37,1621322343812
$GNGSA,A,3,87,,,,,,,,,,,,0.9,0.6,0.7,2*35,1621322343812
$GNGSA,A,3,13,15,,,,,,,,,,,0.9,0.6,0.7,3*3D,1621322343812
$GNGSA,A,3,27,,,,,,,,,,,,0.9,0.6,0.7,4*39,1621322343812
$GNGSA,A,3,02,03,,,,,,,,,,,0.9,0.6,0.7,5*3C,1621322343812
$GNVTG,,T,,M,0.0,N,0.0,K,A*3D,1621322343812
$GNDTM,P90,,0000.000018,S,00000.000001,W,0.993,W84*47,1621322343812
$GNRMC,072029.00,A,2218.127529,N,11410.829874,E,0.0,,180521,2.2,W,A,V*62,1621322343812
$GNGNS,072029.00,2218.127529,N,11410.829874,E,AAAAAN,10,0.6,14.7,-1.2,,,V*06,1621322343812
$GNGGA,072029.00,2218.127529,N,11410.829874,E,1,10,0.6,14.7,M,-1.2,M,,*59,1621322343812
$GPGSV,3,1,12,02,23,264,17,03,24,043,41,06,49,291,21,09,13,126,21,1*68,1621322344802
$GPGSV,3,2,12,17,51,022,26,19,44,344,31,28,81,208,24,30,09,188,27,1*68,1621322344802
$GPGSV,3,3,12,04,07,094,,14,63,165,,22,00,000,,24,01,293,,1*64,1621322344802
$GPGSV,1,1,04,03,24,043,29,06,49,291,23,09,13,126,17,14,63,165,20,8*68,1621322344802
$GLGSV,2,1,08,86,33,008,22,77,23,313,18,76,49,253,21,87,17,296,25,1*74,1621322344802
$GLGSV,2,2,08,85,11,054,27,71,37,092,19,72,25,151,17,70,15,042,,1*7C,1621322344802
$GAGSV,3,1,10,13,49,352,23,15,18,046,29,21,57,285,23,26,30,279,22,7*7A,1621322344802
$GAGSV,3,2,10,01,14,319,,03,07,060,,07,15,161,,08,23,109,,7*7A,1621322344802
$GAGSV,3,3,10,27,49,181,,30,02,154,,7*73,1621322344802
$GAGSV,1,1,04,13,49,352,23,15,18,046,24,21,57,285,26,26,30,279,29,1*78,1621322344802
$GQGSV,1,1,03,-191,39,119,16,-190,42,164,27,-189,57,052,24,1*4D,1621322344802
$GQGSV,1,1,03,-191,39,119,14,-190,42,164,27,-189,57,052,24,8*46,1621322344802
$GBGSV,4,1,16,27,33,053,23,10,78,295,26,08,66,324,25,07,70,150,25,1*7B,1621322344802
$GBGSV,4,2,16,01,47,122,,02,46,234,,03,63,188,,04,33,108,,1*7B,1621322344802
$GBGSV,4,3,16,05,23,254,,06,06,168,,09,02,194,,13,59,272,,1*70,1621322344802
$GBGSV,4,4,16,16,04,174,,20,25,178,,29,12,293,,30,45,343,,1*7D,1621322344802
$GNGSA,A,3,03,17,19,30,,,,,,,,,0.9,0.6,0.7,1*37,1621322344812
$GNGSA,A,3,85,87,,,,,,,,,,,0.9,0.6,0.7,2*38,1621322344812
$GNGSA,A,3,15,,,,,,,,,,,,0.9,0.6,0.7,3*3F,1621322344812
$GNGSA,A,3,02,03,,,,,,,,,,,0.9,0.6,0.7,5*3C,1621322344812
$GNVTG,,T,,M,0.0,N,0.0,K,A*3D,1621322344812
$GNDTM,P90,,0000.000018,S,00000.000001,W,0.993,W84*47,1621322344812
$GNRMC,072030.00,A,2218.127529,N,11410.829874,E,0.0,,180521,2.2,W,A,V*6A,1621322344812
$GNGNS,072030.00,2218.127529,N,11410.829874,E,AAANAN,09,0.6,14.7,-1.2,,,V*09,1621322344812
$GNGGA,072030.00,2218.127529,N,11410.829874,E,1,09,0.6,14.7,M,-1.2,M,,*59,1621322344812
$GPGSV,3,1,12,02,23,264,17,03,24,043,40,06,49,291,21,09,13,126,24,1*6C,1621322345802
$GPGSV,3,2,12,17,51,022,24,19,44,344,28,28,81,208,17,30,09,188,27,1*62,1621322345802
$GPGSV,3,3,12,04,07,094,,14,63,165,,22,00,000,,24,01,293,,1*64,1621322345802
$GPGSV,1,1,04,03,24,043,28,06,49,291,21,09,13,126,17,14,63,165,20,8*6B,1621322345802
$GLGSV,2,1,08,86,33,008,22,77,23,313,18,76,49,253,21,87,17,296,26,1*77,1621322345802
$GLGSV,2,2,08,85,11,054,27,71,37,092,19,72,25,151,17,70,15,042,,1*7C,1621322345802
$GAGSV,3,1,10,13,49,352,23,15,18,046,28,21,57,285,24,26,30,279,18,7*75,1621322345802
$GAGSV,3,2,10,01,14,319,,03,07,060,,07,15,161,,08,23,109,,7*7A,1621322345802
$GAGSV,3,3,10,27,49,181,,30,02,154,,7*73,1621322345802
$GAGSV,1,1,04,13,49,352,23,15,18,046,23,21,57,285,26,26,30,279,29,1*7F,1621322345802
$GQGSV,1,1,03,-191,39,119,16,-190,42,164,29,-189,57,052,23,1*44,1621322345802
$GQGSV,1,1,03,-191,39,119,14,-190,42,164,27,-189,57,052,24,8*46,1621322345802
$GBGSV,4,1,16,27,33,053,28,10,78,295,26,08,66,324,18,07,70,150,25,1*7E,1621322345802
$GBGSV,4,2,16,01,47,122,,02,46,234,,03,63,188,,04,33,108,,1*7B,1621322345802
$GBGSV,4,3,16,05,23,254,,06,06,168,,09,02,194,,13,59,272,,1*70,1621322345802
$GBGSV,4,4,16,16,04,174,,20,25,178,,29,12,293,,30,45,343,,1*7D,1621322345802
$GNGSA,A,3,03,09,17,19,30,,,,,,,,0.9,0.6,0.7,1*3E,1621322345808
$GNGSA,A,3,87,,,,,,,,,,,,0.9,0.6,0.7,2*35,1621322345808
$GNGSA,A,3,15,21,,,,,,,,,,,0.9,0.6,0.7,3*3C,1621322345808
$GNGSA,A,3,27,,,,,,,,,,,,0.9,0.6,0.7,4*39,1621322345808
$GNGSA,A,3,02,03,,,,,,,,,,,0.9,0.6,0.7,5*3C,1621322345808
$GNVTG,,T,,M,0.0,N,0.0,K,A*3D,1621322345808
$GNDTM,P90,,0000.000018,S,00000.000001,W,0.993,W84*47,1621322345808
$GNRMC,072031.00,A,2218.127529,N,11410.829874,E,0.0,,180521,2.2,W,A,V*6B,1621322345808
$GNGNS,072031.00,2218.127529,N,11410.829874,E,AAAAAN,11,0.6,14.7,-1.2,,,V*0E,1621322345808
$GNGGA,072031.00,2218.127529,N,11410.829874,E,1,11,0.6,14.7,M,-1.2,M,,*51,1621322345808
$GPGSV,3,1,12,02,23,264,17,03,24,043,37,06,49,291,21,09,13,126,24,1*6C,1621322346802
$GPGSV,3,2,12,17,51,022,24,19,44,344,28,28,81,208,17,30,09,188,29,1*6C,1621322346802
$GPGSV,3,3,12,04,07,094,,14,63,165,,22,00,000,,24,01,293,,1*64,1621322346802
$GPGSV,1,1,04,03,24,043,30,06,49,291,21,09,13,126,17,14,63,165,20,8*62,1621322346802
$GLGSV,2,1,08,86,33,008,19,77,23,313,16,76,49,253,21,87,17,296,28,1*7F,1621322346802
$GLGSV,2,2,08,85,11,054,23,71,37,092,19,72,25,151,17,70,15,042,,1*78,1621322346802
$GAGSV,3,1,10,13,49,352,25,15,18,046,24,21,57,285,24,26,30,279,18,7*7F,1621322346802
$GAGSV,3,2,10,01,14,319,,03,07,060,,07,15,161,,08,23,109,,7*7A,1621322346802
$GAGSV,3,3,10,27,49,181,,30,02,154,,7*73,1621322346802
$GAGSV,1,1,04,13,49,352,23,15,18,046,24,21,57,285,26,26,30,279,29,1*78,1621322346802
$GQGSV,1,1,03,-191,39,119,16,-190,42,164,30,-189,57,052,22,1*4D,1621322346802
$GQGSV,1,1,03,-191,39,119,14,-190,42,164,24,-189,57,052,19,8*4B,1621322346802
$GBGSV,4,1,16,27,33,053,28,10,78,295,26,08,66,324,18,07,70,150,25,1*7E,1621322346802
$GBGSV,4,2,16,01,47,122,,02,46,234,,03,63,188,,04,33,108,,1*7B,1621322346802
$GBGSV,4,3,16,05,23,254,,06,06,168,,09,02,194,,13,59,272,,1*70,1621322346802
$GBGSV,4,4,16,16,04,174,,20,25,178,,29,12,293,,30,45,343,,1*7D,1621322346802
$GNGSA,A,3,03,06,17,19,30,,,,,,,,0.9,0.6,0.7,1*31,1621322346809
$GNGSA,A,3,71,86,87,,,,,,,,,,0.9,0.6,0.7,2*3D,1621322346809
$GNGSA,A,3,13,15,,,,,,,,,,,0.9,0.6,0.7,3*3D,1621322346809
$GNGSA,A,3,27,,,,,,,,,,,,0.9,0.6,0.7,4*39,1621322346809
$GNGSA,A,3,02,03,,,,,,,,,,,0.9,0.6,0.7,5*3C,1621322346809
$GNVTG,183.0,T,183.0,M,2.1,N,3.9,K,A*34,1621322346809
$GNDTM,P90,,0000.000018,S,00000.000001,W,0.993,W84*47,1621322346809
$GNRMC,072032.00,A,2218.127290,N,11410.830149,E,2.1,183.0,180521,2.2,W,A,V*45,1621322346809
$GNGNS,072032.00,2218.127290,N,11410.830149,E,AAAAAN,13,0.6,15.3,-1.2,,,V*00,1621322346809
$GNGGA,072032.00,2218.127290,N,11410.830149,E,1,12,0.6,15.3,M,-1.2,M,,*5E,1621322346809
$GPGSV,3,1,12,02,23,264,16,03,24,043,32,06,49,291,23,09,13,126,24,1*6A,1621322347805
$GPGSV,3,2,12,14,63,165,22,17,51,022,26,19,44,344,29,28,81,208,17,1*6D,1621322347805
$GPGSV,3,3,12,30,09,188,30,04,07,094,,22,00,000,,24,01,293,,1*6E,1621322347805
$GPGSV,1,1,03,03,24,043,30,06,49,291,21,14,63,165,20,8*5D,1621322347805
$GLGSV,2,1,08,86,33,008,23,77,23,313,16,76,49,253,18,87,17,296,27,1*73,1621322347805
$GLGSV,2,2,08,85,11,054,23,71,37,092,19,72,25,151,21,70,15,042,,1*7D,1621322347805
$GAGSV,3,1,10,13,49,352,25,15,18,046,24,21,57,285,24,26,30,279,18,7*7F,1621322347805
$GAGSV,3,2,10,01,14,319,,03,07,060,,07,15,161,,08,23,109,,7*7A,1621322347805
$GAGSV,3,3,10,27,49,181,,30,02,154,,7*73,1621322347805
$GAGSV,1,1,04,13,49,352,23,15,18,046,24,21,57,285,26,26,30,279,29,1*78,1621322347805
$GQGSV,1,1,03,-191,39,119,16,-190,42,164,30,-189,57,052,24,1*4B,1621322347805
$GQGSV,1,1,03,-191,39,119,14,-190,42,164,24,-189,57,052,19,8*4B,1621322347805
$GBGSV,4,1,16,27,33,053,25,10,78,295,26,08,66,324,18,07,70,150,25,1*73,1621322347805
$GBGSV,4,2,16,01,47,122,,02,46,234,,03,63,188,,04,33,108,,1*7B,1621322347805
$GBGSV,4,3,16,05,23,254,,06,06,168,,09,02,194,,13,59,272,,1*70,1621322347805
$GBGSV,4,4,16,16,04,174,,20,25,178,,29,12,293,,30,45,343,,1*7D,1621322347805
$GNGSA,A,3,02,03,06,14,17,19,30,,,,,,0.9,0.6,0.7,1*36,1621322347821
$GNGSA,A,3,72,76,86,87,,,,,,,,,0.9,0.6,0.7,2*3F,1621322347821
$GNGSA,A,3,13,15,,,,,,,,,,,0.9,0.6,0.7,3*3D,1621322347821
$GNGSA,A,3,27,,,,,,,,,,,,0.9,0.6,0.7,4*39,1621322347821
$GNGSA,A,3,02,03,,,,,,,,,,,0.9,0.6,0.7,5*3C,1621322347821
$GNVTG,179.7,T,179.7,M,4.3,N,8.0,K,A*32,1621322347821
$GNDTM,P90,,0000.000018,S,00000.000001,W,0.993,W84*47,1621322347821
$GNRMC,072033.00,A,2218.126290,N,11410.829994,E,4.3,179.7,180521,2.2,W,A,V*43,1621322347821
$GNGNS,072033.00,2218.126290,N,11410.829994,E,AAAAAN,16,0.6,14.9,-1.2,,,V*0E,1621322347821
$GNGGA,072033.00,2218.126290,N,11410.829994,E,1,12,0.6,14.9,M,-1.2,M,,*55,1621322347821
$GPGSV,3,1,12,02,23,264,16,03,24,043,27,06,49,291,23,09,13,126,19,1*60,1621322348804
$GPGSV,3,2,12,14,63,165,25,17,51,022,23,19,44,344,25,28,81,208,17,1*63,1621322348804
$GPGSV,3,3,12,30,09,188,30,04,07,094,,22,00,000,,24,01,293,,1*6E,1621322348804
$GPGSV,1,1,03,03,24,043,24,06,49,291,21,14,63,165,20,8*58,1621322348804
$GLGSV,2,1,08,86,33,008,22,77,23,313,16,76,49,253,18,87,17,296,23,1*76,1621322348804
$GLGSV,2,2,08,85,11,054,25,71,37,092,20,72,25,151,25,70,15,042,,1*75,1621322348804
$GAGSV,3,1,10,13,49,352,25,15,18,046,24,21,57,285,24,26,30,279,18,7*7F,1621322348804
$GAGSV,3,2,10,01,14,319,,03,07,060,,07,15,161,,08,23,109,,7*7A,1621322348804
$GAGSV,3,3,10,27,49,181,,30,02,154,,7*73,1621322348804
$GAGSV,1,1,04,13,49,352,23,15,18,046,24,21,57,285,26,26,30,279,29,1*78,1621322348804
$GQGSV,1,1,03,-191,39,119,17,-190,42,164,31,-189,57,052,24,1*4B,1621322348804
$GQGSV,1,1,03,-191,39,119,14,-190,42,164,29,-189,57,052,19,8*46,1621322348804
$GBGSV,4,1,16,27,33,053,25,10,78,295,26,08,66,324,18,07,70,150,25,1*73,1621322348804
$GBGSV,4,2,16,01,47,122,,02,46,234,,03,63,188,,04,33,108,,1*7B,1621322348804
$GBGSV,4,3,16,05,23,254,,06,06,168,,09,02,194,,13,59,272,,1*70,1621322348804
$GBGSV,4,4,16,16,04,174,,20,25,178,,29,12,293,,30,45,343,,1*7D,1621322348804
$GNGSA,A,3,03,06,09,14,17,19,30,,,,,,0.9,0.6,0.7,1*3D,1621322348816
$GNGSA,A,3,71,72,86,87,,,,,,,,,0.9,0.6,0.7,2*38,1621322348816
$GNGSA,A,3,01,02,,,,,,,,,,,0.9,0.6,0.7,5*3E,1621322348816
$GNVTG,181.6,T,181.6,M,6.5,N,12.0,K,A*0D,1621322348816
$GNDTM,P90,,0000.000018,S,00000.000001,W,0.993,W84*47,1621322348816
$GNRMC,072034.00,A,2218.124667,N,11410.829674,E,6.5,181.6,180521,2.2,W,A,V*49,1621322348816
$GNGNS,072034.00,2218.124667,N,11410.829674,E,AANNAN,13,0.6,14.3,-1.2,,,V*09,1621322348816
$GNGGA,072034.00,2218.124667,N,11410.829674,E,1,12,0.6,14.3,M,-1.2,M,,*57,1621322348816
$GPGSV,3,1,12,02,23,264,19,03,24,043,27,06,49,291,22,09,13,126,19,1*6E,1621322349801
$GPGSV,3,2,12,14,63,165,34,17,51,022,23,19,44,344,25,28,81,208,17,1*63,1621322349801
$GPGSV,3,3,12,30,09,188,27,04,07,094,,22,00,000,,24,01,293,,1*68,1621322349801
$GPGSV,1,1,03,03,24,043,23,06,49,291,21,14,63,165,20,8*5F,1621322349801
$GLGSV,2,1,08,86,33,008,22,77,23,313,16,76,49,253,25,87,17,296,22,1*79,1621322349801
$GLGSV,2,2,08,85,11,054,24,71,37,092,24,72,25,151,25,70,15,042,,1*70,1621322349801
$GAGSV,3,1,10,13,49,352,21,15,18,046,24,21,57,285,19,26,30,279,20,7*7E,1621322349801
$GAGSV,3,2,10,01,14,319,,03,07,060,,07,15,161,,08,23,109,,7*7A,1621322349801
$GAGSV,3,3,10,27,49,181,,30,02,154,,7*73,1621322349801
$GAGSV,1,1,04,13,49,352,23,15,18,046,24,21,57,285,26,26,30,279,29,1*78,1621322349801
$GQGSV,1,1,03,-190,42,164,36,-189,57,052,24,-191,39,119,,1*4A,1621322349801
$GQGSV,1,1,03,-191,39,119,14,-190,42,164,31,-189,57,052,19,8*4F,1621322349801
$GBGSV,4,1,16,27,33,053,20,10,78,295,26,08,66,324,18,07,70,150,16,1*76,1621322349801
$GBGSV,4,2,16,01,47,122,,02,46,234,,03,63,188,,04,33,108,,1*7B,1621322349801
$GBGSV,4,3,16,05,23,254,,06,06,168,,09,02,194,,13,59,272,,1*70,1621322349801
$GBGSV,4,4,16,16,04,174,,20,25,178,,29,12,293,,30,45,343,,1*7D,1621322349801
$GNGSA,A,3,02,06,14,17,30,,,,,,,,0.9,0.6,0.7,1*3D,1621322349812
$GNGSA,A,3,71,76,87,,,,,,,,,,0.9,0.6,0.7,2*32,1621322349812
$GNGSA,A,3,13,21,26,,,,,,,,,,0.9,0.6,0.7,3*3E,1621322349812
$GNGSA,A,3,07,27,,,,,,,,,,,0.9,0.6,0.7,4*3E,1621322349812
$GNGSA,A,3,02,,,,,,,,,,,,0.9,0.6,0.7,5*3F,1621322349812
$GNVTG,183.6,T,183.6,M,8.1,N,15.0,K,A*00,1621322349812
$GNDTM,P90,,0000.000018,S,00000.000001,W,0.993,W84*47,1621322349812
$GNRMC,072035.00,A,2218.122554,N,11410.829476,E,8.1,183.6,180521,2.2,W,A,V*45,1621322349812
$GNGNS,072035.00,2218.122554,N,11410.829476,E,AAAAAN,14,0.6,14.2,-1.2,,,V*0B,1621322349812
$GNGGA,072035.00,2218.122554,N,11410.829476,E,1,12,0.6,14.2,M,-1.2,M,,*52,1621322349812
$GPGSV,3,1,12,02,23,264,31,03,24,043,26,06,49,291,32,09,13,126,19,1*64,1621322350802
$GPGSV,3,2,12,14,63,165,40,17,51,022,22,19,44,344,21,28,81,208,27,1*66,1621322350802
$GPGSV,3,3,12,30,09,188,29,04,07,094,,22,00,000,,24,01,293,,1*66,1621322350802
$GPGSV,1,1,03,03,24,043,23,06,49,291,20,14,63,165,17,8*5A,1621322350802
$GLGSV,2,1,08,86,33,008,23,77,23,313,16,76,49,253,30,87,17,296,22,1*7C,1621322350802
$GLGSV,2,2,08,85,11,054,22,71,37,092,32,72,25,151,20,70,15,042,,1*74,1621322350802
$GAGSV,3,1,10,13,49,352,23,15,18,046,23,21,57,285,32,26,30,279,30,7*73,1621322350802
$GAGSV,3,2,10,01,14,319,,03,07,060,,07,15,161,,08,23,109,,7*7A,1621322350802
$GAGSV,3,3,10,27,49,181,,30,02,154,,7*73,1621322350802
$GAGSV,1,1,04,13,49,352,23,15,18,046,20,21,57,285,16,26,30,279,20,1*76,1621322350802
$GQGSV,1,1,03,-190,42,164,37,-189,57,052,24,-191,39,119,,1*4B,1621322350802
$GQGSV,1,1,02,-190,42,164,28,-189,57,052,19,8*64,1621322350802
$GBGSV,4,1,16,27,33,053,20,10,78,295,17,08,66,324,18,07,70,150,30,1*70,1621322350802
$GBGSV,4,2,16,01,47,122,,02,46,234,,03,63,188,,04,33,108,,1*7B,1621322350802
$GBGSV,4,3,16,05,23,254,,06,06,168,,09,02,194,,13,59,272,,1*70,1621322350802
$GBGSV,4,4,16,16,04,174,,20,25,178,,29,12,293,,30,45,343,,1*7D,1621322350802
$GNGSA,A,3,02,03,06,14,28,30,,,,,,,0.9,0.6,0.7,1*32,1621322350815
$GNGSA,A,3,71,76,,,,,,,,,,,0.9,0.6,0.7,2*3D,1621322350815
$GNGSA,A,3,21,26,,,,,,,,,,,0.9,0.6,0.7,3*3C,1621322350815
$GNGSA,A,3,07,,,,,,,,,,,,0.9,0.6,0.7,4*3B,1621322350815
$GNGSA,A,3,02,03,,,,,,,,,,,0.9,0.6,0.7,5*3C,1621322350815
$GNVTG,182.4,T,182.4,M,9.1,N,16.8,K,A*0A,1621322350815
$GNDTM,P90,,0000.000018,S,00000.000001,W,0.993,W84*47,1621322350815
$GNRMC,072036.00,A,2218.120087,N,11410.829610,E,9.1,182.4,180521,2.2,W,A,V*4F,1621322350815
$GNGNS,072036.00,2218.120087,N,11410.829610,E,AAAAAN,13,0.6,14.4,-1.2,,,V*02,1621322350815
$GNGGA,072036.00,2218.120087,N,11410.829610,E,1,12,0.6,14.4,M,-1.2,M,,*5C,1621322350815
$GPGSV,3,1,12,02,23,264,31,03,24,043,26,06,49,291,37,09,13,126,22,1*69,1621322351805
$GPGSV,3,2,12,14,63,165,39,17,51,022,23,19,44,344,21,28,81,208,34,1*6B,1621322351805
$GPGSV,3,3,12,30,09,188,25,04,07,094,,22,00,000,,24,01,293,,1*6A,1621322351805
$GPGSV,1,1,04,03,24,043,22,06,49,291,29,14,63,165,23,30,09,188,27,8*6C,1621322351805
$GLGSV,2,1,08,86,33,008,23,77,23,313,16,76,49,253,30,87,17,296,22,1*7C,1621322351805
$GLGSV,2,2,08,85,11,054,23,71,37,092,22,72,25,151,20,70,15,042,,1*74,1621322351805
$GAGSV,3,1,10,13,49,352,24,15,18,046,23,21,57,285,31,26,30,279,31,7*76,1621322351805
$GAGSV,3,2,10,01,14,319,,03,07,060,,07,15,161,,08,23,109,,7*7A,1621322351805
$GAGSV,3,3,10,27,49,181,,30,02,154,,7*73,1621322351805
$GAGSV,1,1,04,13,49,352,23,15,18,046,22,21,57,285,30,26,30,279,33,1*72,1621322351805
$GQGSV,1,1,03,-190,42,164,36,-189,57,052,30,-191,39,119,,1*4F,1621322351805
$GQGSV,1,1,02,-190,42,164,29,-189,57,052,18,8*64,1621322351805
$GBGSV,4,1,16,27,33,053,20,10,78,295,25,08,66,324,18,07,70,150,27,1*77,1621322351805
$GBGSV,4,2,16,01,47,122,,02,46,234,,03,63,188,,04,33,108,,1*7B,1621322351805
$GBGSV,4,3,16,05,23,254,,06,06,168,,09,02,194,,13,59,272,,1*70,1621322351805
$GBGSV,4,4,16,16,04,174,,20,25,178,,29,12,293,,30,45,343,,1*7D,1621322351805
$GNGSA,A,3,02,06,14,17,28,30,,,,,,,0.9,0.6,0.7,1*37,1621322351816
$GNGSA,A,3,76,,,,,,,,,,,,0.9,0.6,0.7,2*3B,1621322351816
$GNGSA,A,3,13,15,21,26,,,,,,,,,0.9,0.6,0.7,3*3A,1621322351816
$GNGSA,A,3,07,10,,,,,,,,,,,0.9,0.6,0.7,4*3A,1621322351816
$GNGSA,A,3,02,03,,,,,,,,,,,0.9,0.6,0.7,5*3C,1621322351816
$GNVTG,183.3,T,183.3,M,10.3,N,19.0,K,A*37,1621322351816
$GNDTM,P90,,0000.000018,S,00000.000001,W,0.993,W84*47,1621322351816
$GNRMC,072037.00,A,2218.117192,N,11410.829265,E,10.3,183.3,180521,2.2,W,A,V*75,1621322351816
$GNGNS,072037.00,2218.117192,N,11410.829265,E,AAAAAN,15,0.6,14.2,-1.2,,,V*04,1621322351816
$GNGGA,072037.00,2218.117192,N,11410.829265,E,1,12,0.6,14.2,M,-1.2,M,,*5C,1621322351816
$GPGSV,3,1,12,02,23,264,33,03,24,043,26,06,49,291,36,09,13,126,22,1*6A,1621322352801
$GPGSV,3,2,12,14,63,165,38,17,51,022,24,19,44,344,20,28,81,208,34,1*6C,1621322352801
$GPGSV,3,3,12,30,09,188,25,04,07,094,,22,00,000,,24,01,293,,1*6A,1621322352801
$GPGSV,1,1,04,03,24,043,25,06,49,291,29,14,63,165,22,30,09,188,29,8*64,1621322352801
$GLGSV,2,1,08,86,33,008,25,77,23,313,16,76,49,253,27,87,17,296,27,1*79,1621322352801
$GLGSV,2,2,08,85,11,054,26,71,37,092,22,72,25,151,20,70,15,042,,1*71,1621322352801
$GAGSV,3,1,10,13,49,352,27,15,18,046,27,21,57,285,33,26,30,279,32,7*70,1621322352801
$GAGSV,3,2,10,01,14,319,,03,07,060,,07,15,161,,08,23,109,,7*7A,1621322352801
$GAGSV,3,3,10,27,49,181,,30,02,154,,7*73,1621322352801
$GAGSV,1,1,04,13,49,352,23,15,18,046,23,21,57,285,29,26,30,279,34,1*7C,1621322352801
$GQGSV,1,1,03,-190,42,164,36,-189,57,052,31,-191,39,119,,1*4E,1621322352801
$GQGSV,1,1,02,-190,42,164,32,-189,57,052,24,8*61,1621322352801
$GBGSV,4,1,16,27,33,053,22,10,78,295,25,08,66,324,23,07,70,150,28,1*72,1621322352801
$GBGSV,4,2,16,01,47,122,,02,46,234,,03,63,188,,04,33,108,,1*7B,1621322352801
$GBGSV,4,3,16,05,23,254,,06,06,168,,09,02,194,,13,59,272,,1*70,1621322352801
$GBGSV,4,4,16,16,04,174,,20,25,178,,29,12,293,,30,45,343,,1*7D,1621322352801
$GNGSA,A,3,02,06,14,17,19,28,30,,,,,,0.9,0.6,0.7,1*3F,1621322352810
$GNGSA,A,3,76,87,,,,,,,,,,,0.9,0.6,0.7,2*34,1621322352810
$GNGSA,A,3,13,21,26,,,,,,,,,,0.9,0.6,0.7,3*3E,1621322352810
$GNGSA,A,3,07,08,10,27,,,,,,,,,0.9,0.6,0.7,4*37,1621322352810
$GNGSA,A,3,02,03,,,,,,,,,,,0.9,0.6,0.7,5*3C,1621322352810
$GNVTG,184.6,T,184.6,M,10.9,N,20.3,K,A*34,1621322352810
$GNDTM,P90,,0000.000018,S,00000.000001,W,0.993,W84*47,1621322352810
$GNRMC,072038.00,A,2218.114010,N,11410.828863,E,10.9,184.6,180521,2.2,W,A,V*77,1621322352810
$GNGNS,072038.00,2218.114010,N,11410.828863,E,AAAAAN,18,0.6,14.4,-1.2,,,V*05,1621322352810
$GNGGA,072038.00,2218.114010,N,11410.828863,E,1,12,0.6,14.4,M,-1.2,M,,*50,1621322352810
$GPGSV,3,1,12,02,23,264,30,03,24,043,30,06,49,291,39,09,13,126,22,1*61,1621322353802
$GPGSV,3,2,12,14,63,165,40,17,51,022,24,19,44,344,21,28,81,208,36,1*60,1621322353802
$GPGSV,3,3,12,30,09,188,29,04,07,094,,22,00,000,,24,01,293,,1*66,1621322353802
$GPGSV,1,1,04,03,24,043,30,06,49,291,28,14,63,165,22,30,09,188,28,8*60,1621322353802
$GLGSV,2,1,08,86,33,008,28,77,23,313,16,76,49,253,27,87,17,296,31,1*73,1621322353802
$GLGSV,2,2,08,85,11,054,29,71,37,092,21,72,25,151,19,70,15,042,,1*77,1621322353802
$GAGSV,3,1,10,13,49,352,31,15,18,046,28,21,57,285,36,26,30,279,34,7*7B,1621322353802
$GAGSV,3,2,10,01,14,319,,03,07,060,,07,15,161,,08,23,109,,7*7A,1621322353802
$GAGSV,3,3,10,27,49,181,,30,02,154,,7*73,1621322353802
$GAGSV,1,1,04,13,49,352,23,15,18,046,23,21,57,285,30,26,30,279,35,1*75,1621322353802
$GQGSV,1,1,03,-190,42,164,38,-189,57,052,33,-191,39,119,,1*42,1621322353802
$GQGSV,1,1,02,-190,42,164,30,-189,57,052,26,8*61,1621322353802
$GBGSV,4,1,16,27,33,053,22,10,78,295,28,08,66,324,26,07,70,150,30,1*73,1621322353802
$GBGSV,4,2,16,01,47,122,,02,46,234,,03,63,188,,04,33,108,,1*7B,1621322353802
$GBGSV,4,3,16,05,23,254,,06,06,168,,09,02,194,,13,59,272,,1*70,1621322353802
$GBGSV,4,4,16,16,04,174,,20,25,178,,29,12,293,,30,45,343,,1*7D,1621322353802
$GNGSA,A,3,02,06,14,28,30,,,,,,,,0.9,0.6,0.7,1*31,1621322353810
$GNGSA,A,3,76,87,,,,,,,,,,,0.9,0.6,0.7,2*34,1621322353810
$GNGSA,A,3,13,21,26,,,,,,,,,,0.9,0.6,0.7,3*3E,1621322353810
$GNGSA,A,3,08,10,,,,,,,,,,,0.9,0.6,0.7,4*35,1621322353810
$GNGSA,A,3,02,,,,,,,,,,,,0.9,0.6,0.7,5*3F,1621322353810
$GNVTG,184.9,T,184.9,M,10.9,N,20.1,K,A*36,1621322353810
$GNDTM,P90,,0000.000018,S,00000.000001,W,0.993,W84*47,1621322353810
$GNRMC,072039.00,A,2218.111049,N,11410.828626,E,10.9,184.9,180521,2.2,W,A,V*7F,1621322353810
$GNGNS,072039.00,2218.111049,N,11410.828626,E,AAAAAN,13,0.6,14.3,-1.2,,,V*0E,1621322353810
$GNGGA,072039.00,2218.111049,N,11410.828626,E,1,12,0.6,14.3,M,-1.2,M,,*50,1621322353810
$GPGSV,3,1,12,02,23,264,33,03,24,043,35,06,49,291,41,09,13,126,22,1*68,1621322354816
$GPGSV,3,2,12,14,63,165,41,17,51,022,22,19,44,344,24,28,81,208,37,1*63,1621322354816
$GPGSV,3,3,12,30,09,188,32,04,07,094,,22,00,000,,24,01,293,,1*6C,1621322354816
$GPGSV,1,1,04,03,24,043,29,06,49,291,28,14,63,165,22,30,09,188,28,8*68,1621322354816
$GLGSV,2,1,08,86,33,008,31,77,23,313,16,76,49,253,26,87,17,296,31,1*7A,1621322354816
$GLGSV,2,2,08,85,11,054,26,71,37,092,25,72,25,151,27,70,15,042,,1*71,1621322354816
$GAGSV,3,1,10,13,49,352,30,15,18,046,31,21,57,285,36,26,30,279,35,7*73,1621322354816
$GAGSV,3,2,10,01,14,319,,03,07,060,,07,15,161,,08,23,109,,7*7A,1621322354816
$GAGSV,3,3,10,27,49,181,,30,02,154,,7*73,1621322354816
$GAGSV,1,1,04,13,49,352,23,15,18,046,23,21,57,285,30,26,30,279,35,1*75,1621322354816
$GQGSV,1,1,03,-190,42,164,39,-189,57,052,35,-191,39,119,,1*45,1621322354816
$GQGSV,1,1,02,-190,42,164,30,-189,57,052,25,8*62,1621322354816
$GBGSV,4,1,16,27,33,053,31,10,78,295,28,08,66,324,24,07,70,150,29,1*7B,1621322354816
$GBGSV,4,2,16,01,47,122,,02,46,234,,03,63,188,,04,33,108,,1*7B,1621322354816
$GBGSV,4,3,16,05,23,254,,06,06,168,,09,02,194,,13,59,272,,1*70,1621322354816
$GBGSV,4,4,16,16,04,174,,20,25,178,,29,12,293,,30,45,343,,1*7D,1621322354816
$GNGSA,A,3,02,03,06,14,19,28,30,,,,,,0.9,0.6,0.7,1*3A,1621322354832
$GNGSA,A,3,76,85,86,87,,,,,,,,,0.9,0.6,0.7,2*37,1621322354832
$GNGSA,A,3,13,15,21,26,,,,,,,,,0.9,0.6,0.7,3*3A,1621322354832
$GNGSA,A,3,08,10,27,,,,,,,,,,0.9,0.6,0.7,4*30,1621322354832
$GNGSA,A,3,02,03,,,,,,,,,,,0.9,0.6,0.7,5*3C,1621322354832
$GNVTG,184.3,T,184.3,M,9.2,N,17.0,K,A*00,1621322354832
$GNDTM,P90,,0000.000018,S,00000.000001,W,0.993,W84*47,1621322354832
$GNRMC,072040.00,A,2218.108181,N,11410.828324,E,9.2,184.3,180521,2.2,W,A,V*42,1621322354832
$GNGNS,072040.00,2218.108181,N,11410.828324,E,AAAAAN,20,0.6,14.4,-1.2,,,V*0D,1621322354832
$GNGGA,072040.00,2218.108181,N,11410.828324,E,1,12,0.6,14.4,M,-1.2,M,,*53,1621322354832
$GPGSV,3,1,12,02,23,264,31,03,24,043,28,06,49,291,39,09,13,126,22,1*69,1621322355804
$GPGSV,3,2,12,14,63,165,40,17,51,022,24,19,44,344,23,28,81,208,36,1*62,1621322355804
$GPGSV,3,3,12,30,09,188,32,04,07,094,,22,00,000,,24,01,293,,1*6C,1621322355804
$GPGSV,1,1,04,03,24,043,25,06,49,291,28,14,63,165,22,30,09,188,29,8*65,1621322355804
$GLGSV,2,1,08,86,33,008,31,77,23,313,16,76,49,253,29,87,17,296,31,1*75,1621322355804
$GLGSV,2,2,08,85,11,054,26,71,37,092,24,72,25,151,34,70,15,042,,1*72,1621322355804
$GAGSV,3,1,10,13,49,352,28,15,18,046,31,21,57,285,37,26,30,279,36,7*78,1621322355804
$GAGSV,3,2,10,01,14,319,,03,07,060,,07,15,161,,08,23,109,,7*7A,1621322355804
$GAGSV,3,3,10,27,49,181,,30,02,154,,7*73,1621322355804
$GAGSV,1,1,04,13,49,352,23,15,18,046,22,21,57,285,28,26,30,279,33,1*7B,1621322355804
$GQGSV,1,1,03,-191,39,119,20,-190,42,164,39,-189,57,052,34,1*46,1621322355804
$GQGSV,1,1,02,-190,42,164,29,-189,57,052,23,8*6C,1621322355804
$GBGSV,4,1,16,27,33,053,28,10,78,295,28,08,66,324,26,07,70,150,29,1*71,1621322355804
$GBGSV,4,2,16,01,47,122,,02,46,234,,03,63,188,,04,33,108,,1*7B,1621322355804
$GBGSV,4,3,16,05,23,254,,06,06,168,,09,02,194,,13,59,272,,1*70,1621322355804
$GBGSV,4,4,16,16,04,174,,20,25,178,,29,12,293,,30,45,343,,1*7D,1621322355804
$GNGSA,A,3,02,06,14,19,28,30,,,,,,,0.9,0.6,0.7,1*39,1621322355816
$GNGSA,A,3,76,87,,,,,,,,,,,0.9,0.6,0.7,2*34,1621322355816
$GNGSA,A,3,13,21,26,,,,,,,,,,0.9,0.6,0.7,3*3E,1621322355816
$GNGSA,A,3,08,10,,,,,,,,,,,0.9,0.6,0.7,4*35,1621322355816
$GNGSA,A,3,02,,,,,,,,,,,,0.9,0.6,0.7,5*3F,1621322355816
$GNVTG,183.3,T,183.3,M,6.6,N,12.2,K,A*0C,1621322355816
$GNDTM,P90,,0000.000018,S,00000.000001,W,0.993,W84*47,1621322355816
$GNRMC,072041.00,A,2218.106108,N,11410.828335,E,6.6,183.3,180521,2.2,W,A,V*40,1621322355816
$GNGNS,072041.00,2218.106108,N,11410.828335,E,AAAAAN,14,0.6,14.1,-1.2,,,V*01,1621322355816
$GNGGA,072041.00,2218.106108,N,11410.828335,E,1,12,0.6,14.1,M,-1.2,M,,*58,1621322355816
$GPGSV,3,1,12,02,23,264,25,03,24,043,31,04,07,094,28,06,49,291,40,1*60,1621322356803
$GPGSV,3,2,12,09,13,126,22,14,63,165,39,17,51,022,25,19,44,344,24,1*68,1621322356803
$GPGSV,3,3,12,28,81,208,35,30,09,188,33,22,00,000,,24,01,293,,1*6C,1621322356803
$GPGSV,1,1,03,03,24,043,23,06,49,291,30,14,63,165,22,8*5D,1621322356803
$GLGSV,2,1,08,86,33,008,22,77,23,313,16,76,49,253,25,87,17,296,32,1*78,1621322356803
$GLGSV,2,2,08,85,11,054,28,71,37,092,25,72,25,151,33,70,15,042,,1*7A,1621322356803
$GAGSV,3,1,10,13,49,352,28,15,18,046,27,21,57,285,35,26,30,279,36,7*7D,1621322356803
$GAGSV,3,2,10,01,14,319,,03,07,060,,07,15,161,,08,23,109,,7*7A,1621322356803
$GAGSV,3,3,10,27,49,181,,30,02,154,,7*73,1621322356803
$GAGSV,1,1,04,13,49,352,23,15,18,046,24,21,57,285,27,26,30,279,33,1*72,1621322356803
$GQGSV,1,1,03,-191,39,119,20,-190,42,164,39,-189,57,052,34,1*46,1621322356803
$GQGSV,1,1,02,-190,42,164,30,-189,57,052,24,8*63,1621322356803
$GBGSV,4,1,16,27,33,053,31,10,78,295,28,08,66,324,23,07,70,150,29,1*7C,1621322356803
$GBGSV,4,2,16,01,47,122,,02,46,234,,03,63,188,,04,33,108,,1*7B,1621322356803
$GBGSV,4,3,16,05,23,254,,06,06,168,,09,02,194,,13,59,272,,1*70,1621322356803
$GBGSV,4,4,16,16,04,174,,20,25,178,,29,12,293,,30,45,343,,1*7D,1621322356803
$GNGSA,A,3,02,06,14,19,28,30,,,,,,,0.9,0.6,0.7,1*39,1621322356814
$GNGSA,A,3,76,87,,,,,,,,,,,0.9,0.6,0.7,2*34,1621322356814
$GNGSA,A,3,13,21,26,,,,,,,,,,0.9,0.6,0.7,3*3E,1621322356814
$GNGSA,A,3,10,,,,,,,,,,,,0.9,0.6,0.7,4*3D,1621322356814
$GNGSA,A,3,02,,,,,,,,,,,,0.9,0.6,0.7,5*3F,1621322356814
$GNVTG,182.1,T,182.1,M,3.4,N,6.3,K,A*3F,1621322356814
$GNDTM,P90,,0000.000018,S,00000.000001,W,0.993,W84*47,1621322356814
$GNRMC,072042.00,A,2218.104850,N,11410.828441,E,3.4,182.1,180521,2.2,W,A,V*45,1621322356814
$GNGNS,072042.00,2218.104850,N,11410.828441,E,AAAAAN,13,0.6,13.8,-1.2,,,V*09,1621322356814
$GNGGA,072042.00,2218.104850,N,11410.828441,E,1,12,0.6,13.8,M,-1.2,M,,*57,1621322356814
$GPGSV,3,1,12,02,23,264,24,03,24,043,25,06,49,291,39,09,13,126,23,1*61,1621322357805
$GPGSV,3,2,12,14,63,165,40,17,51,022,25,19,44,344,25,28,81,208,36,1*65,1621322357805
$GPGSV,3,3,12,30,09,188,34,04,07,094,,22,00,000,,24,01,293,,1*6A,1621322357805
$GPGSV,1,1,03,03,24,043,23,06,49,291,30,14,63,165,22,8*5D,1621322357805
$GLGSV,2,1,08,86,33,008,22,77,23,313,16,76,49,253,26,87,17,296,27,1*7F,1621322357805
$GLGSV,2,2,08,85,11,054,24,71,37,092,24,72,25,151,32,70,15,042,,1*76,1621322357805
$GAGSV,3,1,10,13,49,352,28,15,18,046,33,21,57,285,38,26,30,279,35,7*76,1621322357805
$GAGSV,3,2,10,01,14,319,,03,07,060,,07,15,161,,08,23,109,,7*7A,1621322357805
$GAGSV,3,3,10,27,49,181,,30,02,154,,7*73,1621322357805
$GAGSV,1,1,04,13,49,352,23,15,18,046,24,21,57,285,27,26,30,279,33,1*72,1621322357805
$GQGSV,1,1,03,-191,39,119,20,-190,42,164,39,-189,57,052,35,1*47,1621322357805
$GQGSV,1,1,02,-190,42,164,30,-189,57,052,26,8*61,1621322357805
$GBGSV,4,1,16,27,33,053,32,10,78,295,28,08,66,324,26,07,70,150,29,1*7A,1621322357805
$GBGSV,4,2,16,01,47,122,,02,46,234,,03,63,188,,04,33,108,,1*7B,1621322357805
$GBGSV,4,3,16,05,23,254,,06,06,168,,09,02,194,,13,59,272,,1*70,1621322357805
$GBGSV,4,4,16,16,04,174,,20,25,178,,29,12,293,,30,45,343,,1*7D,1621322357805
$GNGSA,A,3,02,06,14,19,28,30,,,,,,,1.0,0.7,0.7,1*30,1621322357815
$GNGSA,A,3,76,87,,,,,,,,,,,1.0,0.7,0.7,2*3D,1621322357815
$GNGSA,A,3,13,21,26,,,,,,,,,,1.0,0.7,0.7,3*37,1621322357815
$GNGSA,A,3,08,10,,,,,,,,,,,1.0,0.7,0.7,4*3C,1621322357815
$GNGSA,A,3,02,,,,,,,,,,,,1.0,0.7,0.7,5*36,1621322357815
$GNVTG,181.6,T,181.6,M,1.8,N,3.3,K,A*34,1621322357815
$GNDTM,P90,,0000.000018,S,00000.000001,W,0.993,W84*47,1621322357815
$GNRMC,072043.00,A,2218.104110,N,11410.828492,E,1.8,181.6,180521,2.2,W,A,V*4D,1621322357815
$GNGNS,072043.00,2218.104110,N,11410.828492,E,AAAAAN,14,0.7,13.3,-1.2,,,V*06,1621322357815
$GNGGA,072043.00,2218.104110,N,11410.828492,E,1,12,0.7,13.3,M,-1.2,M,,*5F,1621322357815
$GPGSV,3,1,12,02,23,264,32,03,24,043,29,06,49,291,41,09,13,126,23,1*65,1621322358808
$GPGSV,3,2,12,14,63,165,41,17,51,022,25,19,44,344,23,28,81,208,36,1*62,1621322358808
$GPGSV,3,3,12,30,09,188,35,04,07,094,,22,00,000,,24,01,293,,1*6B,1621322358808
$GPGSV,1,1,03,03,24,043,22,06,49,291,30,14,63,165,22,8*5C,1621322358808
$GLGSV,2,1,08,86,33,008,22,77,23,313,11,76,49,253,31,87,17,296,32,1*7A,1621322358808
$GLGSV,2,2,08,85,11,054,24,71,37,092,24,72,25,151,35,70,15,042,,1*71,1621322358808
$GAGSV,3,1,10,13,49,352,28,15,18,046,29,21,57,285,37,26,30,279,38,7*7F,1621322358808
$GAGSV,3,2,10,01,14,319,,03,07,060,,07,15,161,,08,23,109,,7*7A,1621322358808
$GAGSV,3,3,10,27,49,181,,30,02,154,,7*73,1621322358808
$GAGSV,1,1,04,13,49,352,23,15,18,046,23,21,57,285,28,26,30,279,34,1*7D,1621322358808
$GQGSV,1,1,03,-191,39,119,25,-190,42,164,40,-189,57,052,35,1*4C,1621322358808
$GQGSV,1,1,02,-190,42,164,30,-189,57,052,27,8*60,1621322358808
$GBGSV,4,1,16,27,33,053,31,10,78,295,28,08,66,324,26,07,70,150,29,1*79,1621322358808
$GBGSV,4,2,16,01,47,122,,02,46,234,,03,63,188,,04,33,108,,1*7B,1621322358808
$GBGSV,4,3,16,05,23,254,,06,06,168,,09,02,194,,13,59,272,,1*70,1621322358808
$GBGSV,4,4,16,16,04,174,,20,25,178,,29,12,293,,30,45,343,,1*7D,1621322358808
$GNGSA,A,3,02,06,14,28,30,,,,,,,,1.0,0.7,0.7,1*38,1621322358818
$GNGSA,A,3,76,87,,,,,,,,,,,1.0,0.7,0.7,2*3D,1621322358818
$GNGSA,A,3,13,21,26,,,,,,,,,,1.0,0.7,0.7,3*37,1621322358818
$GNGSA,A,3,10,,,,,,,,,,,,1.0,0.7,0.7,4*34,1621322358818
$GNGSA,A,3,02,,,,,,,,,,,,1.0,0.7,0.7,5*36,1621322358818
$GNVTG,181.4,T,181.4,M,0.6,N,1.1,K,A*3B,1621322358818
$GNDTM,P90,,0000.000018,S,00000.000001,W,0.993,W84*47,1621322358818
$GNRMC,072044.00,A,2218.103721,N,11410.828532,E,0.6,181.4,180521,2.2,W,A,V*4F,1621322358818
$GNGNS,072044.00,2218.103721,N,11410.828532,E,AAAAAN,12,0.7,12.9,-1.2,,,V*04,1621322358818
$GNGGA,072044.00,2218.103721,N,11410.828532,E,1,12,0.7,12.9,M,-1.2,M,,*5B,1621322358818
$GPGSV,3,1,12,02,23,264,30,03,24,043,31,06,49,291,40,09,13,126,23,1*6F,1621322359869
$GPGSV,3,2,12,14,63,165,40,17,51,022,20,19,44,344,21,28,81,208,35,1*67,1621322359869
$GPGSV,3,3,12,30,09,188,36,04,07,094,,22,00,000,,24,01,293,,1*68,1621322359869
$GPGSV,1,1,03,03,24,043,21,06,49,291,30,14,63,165,22,8*5F,1621322359869
$GLGSV,2,1,08,86,33,008,22,77,23,313,11,76,49,253,31,87,17,296,27,1*7E,1621322359869
$GLGSV,2,2,08,85,11,054,23,71,37,092,21,72,25,151,36,70,15,042,,1*70,1621322359869
$GAGSV,3,1,10,13,49,352,30,15,18,046,28,21,57,285,37,26,30,279,36,7*79,1621322359869
$GAGSV,3,2,10,01,14,319,,03,07,060,,07,15,161,,08,23,109,,7*7A,1621322359869
$GAGSV,3,3,10,27,49,181,,30,02,154,,7*73,1621322359869
$GAGSV,1,1,04,13,49,352,23,15,18,046,24,21,57,285,28,26,30,279,35,1*7B,1621322359869
$GQGSV,1,1,03,-190,42,164,39,-189,57,052,37,-191,39,119,,1*47,1621322359869
$GQGSV,1,1,02,-190,42,164,31,-189,57,052,27,8*61,1621322359869
$GBGSV,4,1,16,27,33,053,29,10,78,295,29,08,66,324,22,07,70,150,28,1*74,1621322359869
$GBGSV,4,2,16,01,47,122,,02,46,234,,03,63,188,,04,33,108,,1*7B,1621322359869
$GBGSV,4,3,16,05,23,254,,06,06,168,,09,02,194,,13,59,272,,1*70,1621322359869
$GBGSV,4,4,16,16,04,174,,20,25,178,,29,12,293,,30,45,343,,1*7D,1621322359869
$GNGSA,A,3,02,06,14,28,30,,,,,,,,1.0,0.7,0.7,1*38,1621322359879
$GNGSA,A,3,76,87,,,,,,,,,,,1.0,0.7,0.7,2*3D,1621322359879
$GNGSA,A,3,13,21,26,,,,,,,,,,1.0,0.7,0.7,3*37,1621322359879
$GNGSA,A,3,10,,,,,,,,,,,,1.0,0.7,0.7,4*34,1621322359879
$GNGSA,A,3,02,03,,,,,,,,,,,1.0,0.7,0.7,5*35,1621322359879
$GNVTG,,T,,M,0.0,N,0.0,K,A*3D,1621322359879
$GNDTM,P90,,0000.000018,S,00000.000001,W,0.993,W84*47,1621322359879
$GNRMC,072045.00,A,2218.103536,N,11410.828460,E,0.0,,180521,2.2,W,A,V*68,1621322359879
$GNGNS,072045.00,2218.103536,N,11410.828460,E,AAAAAN,13,0.7,12.9,-1.2,,,V*06,1621322359879
$GNGGA,072045.00,2218.103536,N,11410.828460,E,1,12,0.7,12.9,M,-1.2,M,,*58,1621322359879
$GPGSV,3,1,12,02,23,264,29,03,24,043,28,04,07,094,27,06,49,291,39,1*65,1621322360809
$GPGSV,3,2,12,09,13,126,22,14,63,165,41,17,51,022,23,19,44,344,27,1*62,1621322360809
$GPGSV,3,3,12,28,81,208,35,30,09,188,34,22,00,000,,24,01,293,,1*6B,1621322360809
$GPGSV,1,1,03,03,24,043,22,06,49,291,30,14,63,165,22,8*5C,1621322360809
$GLGSV,2,1,08,86,33,008,22,77,23,313,11,76,49,253,32,87,17,296,23,1*79,1621322360809
$GLGSV,2,2,08,85,11,054,30,71,37,092,21,72,25,151,37,70,15,042,,1*73,1621322360809
$GAGSV,3,1,10,13,49,352,28,15,18,046,30,21,57,285,37,26,30,279,33,7*7C,1621322360809
$GAGSV,3,2,10,01,14,319,,03,07,060,,07,15,161,,08,23,109,,7*7A,1621322360809
$GAGSV,3,3,10,27,49,181,,30,02,154,,7*73,1621322360809
$GAGSV,1,1,04,13,49,352,23,15,18,046,24,21,57,285,24,26,30,279,35,1*77,1621322360809
$GQGSV,1,1,03,-190,42,164,39,-189,57,052,35,-191,39,119,,1*45,1621322360809
$GQGSV,1,1,02,-190,42,164,30,-189,57,052,27,8*60,1621322360809
$GBGSV,4,1,16,27,33,053,29,10,78,295,28,08,66,324,24,07,70,150,28,1*73,1621322360809
$GBGSV,4,2,16,01,47,122,,02,46,234,,03,63,188,,04,33,108,,1*7B,1621322360809
$GBGSV,4,3,16,05,23,254,,06,06,168,,09,02,194,,13,59,272,,1*70,1621322360809
$GBGSV,4,4,16,16,04,174,,20,25,178,,29,12,293,,30,45,343,,1*7D,1621322360809
$GNGSA,A,3,02,06,14,19,28,30,,,,,,,1.0,0.7,0.7,1*30,1621322360818
$GNGSA,A,3,76,,,,,,,,,,,,1.0,0.7,0.7,2*32,1621322360818
$GNGSA,A,3,13,21,26,,,,,,,,,,1.0,0.7,0.7,3*37,1621322360818
$GNGSA,A,3,08,10,,,,,,,,,,,1.0,0.7,0.7,4*3C,1621322360818
$GNGSA,A,3,02,,,,,,,,,,,,1.0,0.7,0.7,5*36,1621322360818
$GNVTG,181.2,T,181.2,M,1.3,N,2.4,K,A*39,1621322360818
$GNDTM,P90,,0000.000018,S,00000.000001,W,0.993,W84*47,1621322360818
$GNRMC,072046.00,A,2218.103274,N,11410.828422,E,1.3,181.2,180521,2.2,W,A,V*4A,1621322360818
$GNGNS,072046.00,2218.103274,N,11410.828422,E,AAAAAN,13,0.7,13.0,-1.2,,,V*0A,1621322360818
$GNGGA,072046.00,2218.103274,N,11410.828422,E,1,12,0.7,13.0,M,-1.2,M,,*54,1621322360818
$GPGSV,3,1,12,02,23,264,30,03,24,043,30,04,07,094,27,06,49,291,39,1*64,1621322361806
$GPGSV,3,2,12,09,13,126,24,14,63,165,41,17,51,022,26,19,44,344,26,1*60,1621322361806
$GPGSV,3,3,12,28,81,208,35,30,09,188,36,22,00,000,,24,01,293,,1*69,1621322361806
$GPGSV,1,1,03,03,24,043,23,06,49,291,30,14,63,165,22,8*5D,1621322361806
$GLGSV,2,1,08,86,33,008,19,77,23,313,11,76,49,253,32,87,17,296,31,1*72,1621322361806
$GLGSV,2,2,08,85,11,054,30,71,37,092,21,72,25,151,37,70,15,042,,1*73,1621322361806
$GAGSV,3,1,10,13,49,352,26,15,18,046,30,21,57,285,37,26,30,279,35,7*74,1621322361806
$GAGSV,3,2,10,01,14,319,,03,07,060,,07,15,161,,08,23,109,,7*7A,1621322361806
$GAGSV,3,3,10,27,49,181,,30,02,154,,7*73,1621322361806
$GAGSV,1,1,04,13,49,352,23,15,18,046,24,21,57,285,24,26,30,279,34,1*76,1621322361806
$GQGSV,1,1,03,-190,42,164,39,-189,57,052,36,-191,39,119,,1*46,1621322361806
$GQGSV,1,1,02,-190,42,164,32,-189,57,052,26,8*63,1621322361806
$GBGSV,4,1,16,27,33,053,35,10,78,295,30,08,66,324,25,07,70,150,28,1*76,1621322361806
$GBGSV,4,2,16,01,47,122,,02,46,234,,03,63,188,,04,33,108,,1*7B,1621322361806
$GBGSV,4,3,16,05,23,254,,06,06,168,,09,02,194,,13,59,272,,1*70,1621322361806
$GBGSV,4,4,16,16,04,174,,20,25,178,,29,12,293,,30,45,343,,1*7D,1621322361806
$GNGSA,A,3,02,06,14,19,28,30,,,,,,,1.2,0.9,0.8,1*33,1621322361815
$GNGSA,A,3,72,76,87,,,,,,,,,,1.2,0.9,0.8,2*3B,1621322361815
$GNGSA,A,3,13,21,26,,,,,,,,,,1.2,0.9,0.8,3*34,1621322361815
$GNGSA,A,3,08,10,,,,,,,,,,,1.2,0.9,0.8,4*3F,1621322361815
$GNGSA,A,3,02,,,,,,,,,,,,1.2,0.9,0.8,5*35,1621322361815
$GNVTG,180.7,T,180.7,M,2.6,N,4.8,K,A*35,1621322361815
$GNDTM,P90,,0000.000018,S,00000.000001,W,0.993,W84*47,1621322361815
$GNRMC,072047.00,A,2218.102667,N,11410.828417,E,2.6,180.7,180521,2.2,W,A,V*48,1621322361815
$GNGNS,072047.00,2218.102667,N,11410.828417,E,AAAAAN,15,0.9,12.9,-1.2,,,V*0A,1621322361815
$GNGGA,072047.00,2218.102667,N,11410.828417,E,1,12,0.9,12.9,M,-1.2,M,,*52,1621322361815
$GPGSV,3,1,12,02,23,264,29,03,24,043,30,04,07,094,27,06,49,291,38,1*6D,1621322362804
$GPGSV,3,2,12,09,13,126,24,14,63,165,39,17,51,022,30,19,44,344,24,1*6A,1621322362804
$GPGSV,3,3,12,28,81,208,36,30,09,188,36,22,00,000,,24,01,293,,1*6A,1621322362804
$GPGSV,1,1,03,03,24,043,27,06,49,291,32,14,63,165,22,8*5B,1621322362804
$GLGSV,2,1,08,86,33,008,24,77,23,313,11,76,49,253,34,87,17,296,34,1*7F,1621322362804
$GLGSV,2,2,08,85,11,054,34,71,37,092,25,72,25,151,37,70,15,042,,1*73,1621322362804
$GAGSV,3,1,10,13,49,352,26,15,18,046,30,21,57,285,34,26,30,279,35,7*77,1621322362804
$GAGSV,3,2,10,01,14,319,,03,07,060,,07,15,161,,08,23,109,,7*7A,1621322362804
$GAGSV,3,3,10,27,49,181,,30,02,154,,7*73,1621322362804
$GAGSV,1,1,04,13,49,352,16,15,18,046,21,21,57,285,29,26,30,279,36,1*7A,1621322362804
$GQGSV,1,1,03,-190,42,164,39,-189,57,052,34,-191,39,119,,1*44,1621322362804
$GQGSV,1,1,02,-190,42,164,32,-189,57,052,27,8*62,1621322362804
$GBGSV,4,1,16,27,33,053,35,10,78,295,30,08,66,324,26,07,70,150,28,1*75,1621322362804
$GBGSV,4,2,16,01,47,122,,02,46,234,,03,63,188,,04,33,108,,1*7B,1621322362804
$GBGSV,4,3,16,05,23,254,,06,06,168,,09,02,194,,13,59,272,,1*70,1621322362804
$GBGSV,4,4,16,16,04,174,,20,25,178,,29,12,293,,30,45,343,,1*7D,1621322362804
$GNGSA,A,3,02,03,06,14,17,19,28,30,,,,,1.0,0.6,0.7,1*34,1621322362814
$GNGSA,A,3,72,76,85,87,,,,,,,,,1.0,0.6,0.7,2*34,1621322362814
$GNGSA,A,3,13,15,21,26,,,,,,,,,1.0,0.6,0.7,3*32,1621322362814
$GNGSA,A,3,08,10,,,,,,,,,,,1.0,0.6,0.7,4*3D,1621322362814
$GNGSA,A,3,02,03,,,,,,,,,,,1.0,0.6,0.7,5*34,1621322362814
$GNVTG,180.4,T,180.4,M,1.5,N,2.8,K,A*33,1621322362814
$GNDTM,P90,,0000.000018,S,00000.000001,W,0.993,W84*47,1621322362814
$GNRMC,072048.00,A,2218.102173,N,11410.828471,E,1.5,180.4,180521,2.2,W,A,V*46,1621322362814
$GNGNS,072048.00,2218.102173,N,11410.828471,E,AAAAAN,20,0.6,12.6,-1.2,,,V*01,1621322362814
$GNGGA,072048.00,2218.102173,N,11410.828471,E,1,12,0.6,12.6,M,-1.2,M,,*5F,1621322362814
$GPGSV,3,1,12,02,23,264,29,03,24,043,28,04,07,094,26,06,49,291,41,1*6B,1621322363805
$GPGSV,3,2,12,09,13,126,22,14,63,165,39,17,51,022,28,19,44,344,26,1*67,1621322363805
$GPGSV,3,3,12,28,81,208,35,30,09,188,38,22,00,000,,24,01,293,,1*67,1621322363805
$GPGSV,1,1,03,03,24,043,23,06,49,291,34,14,63,165,22,8*59,1621322363805
$GLGSV,2,1,08,86,33,008,24,77,23,313,11,76,49,253,32,87,17,296,33,1*7E,1621322363805
$GLGSV,2,2,08,85,11,054,29,71,37,092,25,72,25,151,35,70,15,042,,1*7D,1621322363805
$GAGSV,3,1,10,13,49,352,25,15,18,046,30,21,57,285,36,26,30,279,37,7*74,1621322363805
$GAGSV,3,2,10,01,14,319,,03,07,060,,07,15,161,,08,23,109,,7*7A,1621322363805
$GAGSV,3,3,10,27,49,181,,30,02,154,,7*73,1621322363805
$GAGSV,1,1,04,13,49,352,16,15,18,046,22,21,57,285,30,26,30,279,35,1*72,1621322363805
$GQGSV,1,1,03,-190,42,164,39,-189,57,052,34,-191,39,119,,1*44,1621322363805
$GQGSV,1,1,02,-190,42,164,30,-189,57,052,30,8*66,1621322363805
$GBGSV,4,1,16,27,33,053,35,10,78,295,31,08,66,324,23,07,70,150,30,1*78,1621322363805
$GBGSV,4,2,16,01,47,122,,02,46,234,,03,63,188,,04,33,108,,1*7B,1621322363805
$GBGSV,4,3,16,05,23,254,,06,06,168,,09,02,194,,13,59,272,,1*70,1621322363805
$GBGSV,4,4,16,16,04,174,,20,25,178,,29,12,293,,30,45,343,,1*7D,1621322363805
$GNGSA,A,3,02,03,06,14,17,19,28,30,,,,,1.0,0.6,0.7,1*34,1621322363815
$GNGSA,A,3,76,85,87,,,,,,,,,,1.0,0.6,0.7,2*31,1621322363815
$GNGSA,A,3,13,15,21,26,,,,,,,,,1.0,0.6,0.7,3*32,1621322363815
$GNGSA,A,3,08,10,,,,,,,,,,,1.0,0.6,0.7,4*3D,1621322363815
$GNGSA,A,3,02,03,,,,,,,,,,,1.0,0.6,0.7,5*34,1621322363815
$GNVTG,,T,,M,0.0,N,0.0,K,A*3D,1621322363815
$GNDTM,P90,,0000.000018,S,00000.000001,W,0.993,W84*47,1621322363815
$GNRMC,072049.00,A,2218.101971,N,11410.828421,E,0.0,,180521,2.2,W,A,V*6C,1621322363815
$GNGNS,072049.00,2218.101971,N,11410.828421,E,AAAAAN,19,0.6,12.5,-1.2,,,V*05,1621322363815
$GNGGA,072049.00,2218.101971,N,11410.828421,E,1,12,0.6,12.5,M,-1.2,M,,*51,1621322363815
$GPGSV,3,1,12,02,23,264,29,03,24,043,28,04,07,094,26,06,49,291,40,1*6A,1621322364805
$GPGSV,3,2,12,09,13,126,22,14,63,165,40,17,51,022,27,19,44,344,24,1*64,1621322364805
$GPGSV,3,3,12,28,81,208,36,30,09,188,38,22,00,000,,24,01,293,,1*64,1621322364805
$GPGSV,1,1,03,03,24,043,21,06,49,291,34,14,63,165,22,8*5B,1621322364805
$GLGSV,2,1,08,86,33,008,21,77,23,313,18,76,49,253,33,87,17,296,33,1*73,1621322364805
$GLGSV,2,2,08,85,11,054,32,71,37,092,25,72,25,151,36,70,15,042,,1*74,1621322364805
$GAGSV,3,1,10,13,49,352,25,15,18,046,30,21,57,285,35,26,30,279,37,7*77,1621322364805
$GAGSV,3,2,10,01,14,319,,03,07,060,,07,15,161,,08,23,109,,7*7A,1621322364805
$GAGSV,3,3,10,27,49,181,,30,02,154,,7*73,1621322364805
$GAGSV,1,1,04,13,49,352,16,15,18,046,23,21,57,285,28,26,30,279,34,1*7B,1621322364805
$GQGSV,1,1,03,-191,39,119,22,-190,42,164,39,-189,57,052,35,1*45,1621322364805
$GQGSV,1,1,02,-190,42,164,30,-189,57,052,30,8*66,1621322364805
$GBGSV,4,1,16,27,33,053,33,10,78,295,30,08,66,324,25,07,70,150,28,1*70,1621322364805
$GBGSV,4,2,16,01,47,122,,02,46,234,,03,63,188,,04,33,108,,1*7B,1621322364805
$GBGSV,4,3,16,05,23,254,,06,06,168,,09,02,194,,13,59,272,,1*70,1621322364805
$GBGSV,4,4,16,16,04,174,,20,25,178,,29,12,293,,30,45,343,,1*7D,1621322364805
$GNGSA,A,3,02,03,06,14,17,19,28,30,,,,,1.0,0.6,0.7,1*34,1621322364813
$GNGSA,A,3,76,85,87,,,,,,,,,,1.0,0.6,0.7,2*31,1621322364813
$GNGSA,A,3,13,15,21,26,,,,,,,,,1.0,0.6,0.7,3*32,1621322364813
$GNGSA,A,3,08,10,,,,,,,,,,,1.0,0.6,0.7,4*3D,1621322364813
$GNGSA,A,3,02,03,,,,,,,,,,,1.0,0.6,0.7,5*34,1621322364813
$GNVTG,,T,,M,0.0,N,0.0,K,A*3D,1621322364813
$GNDTM,P90,,0000.000018,S,00000.000001,W,0.993,W84*47,1621322364813
$GNRMC,072050.00,A,2218.101975,N,11410.828417,E,0.0,,180521,2.2,W,A,V*65,1621322364813
$GNGNS,072050.00,2218.101975,N,11410.828417,E,AAAAAN,19,0.6,12.5,-1.2,,,V*0C,1621322364813
$GNGGA,072050.00,2218.101975,N,11410.828417,E,1,12,0.6,12.5,M,-1.2,M,,*58,1621322364813
$GPGSV,3,1,12,02,23,264,29,03,24,043,26,04,07,094,26,06,49,291,40,1*64,1621322365804
$GPGSV,3,2,12,09,13,126,22,14,63,165,40,17,51,022,31,19,44,344,25,1*62,1621322365804
$GPGSV,3,3,12,28,81,208,36,30,09,188,36,22,00,000,,24,01,293,,1*6A,1621322365804
$GPGSV,1,1,03,03,24,043,25,06,49,291,35,14,63,165,22,8*5E,1621322365804
$GLGSV,2,1,08,86,33,008,21,77,23,313,18,76,49,253,34,87,17,296,36,1*71,1621322365804
$GLGSV,2,2,08,85,11,054,30,71,37,092,18,72,25,151,34,70,15,042,,1*7A,1621322365804
$GAGSV,3,1,10,13,49,352,26,15,18,046,26,21,57,285,36,26,30,279,37,7*70,1621322365804
$GAGSV,3,2,10,01,14,319,,03,07,060,,07,15,161,,08,23,109,,7*7A,1621322365804
$GAGSV,3,3,10,27,49,181,,30,02,154,,7*73,1621322365804
$GAGSV,1,1,04,13,49,352,16,15,18,046,22,21,57,285,29,26,30,279,35,1*7A,1621322365804
$GQGSV,1,1,03,-191,39,119,22,-190,42,164,40,-189,57,052,34,1*4A,1621322365804
$GQGSV,1,1,02,-190,42,164,31,-189,57,052,30,8*67,1621322365804
$GBGSV,4,1,16,27,33,053,33,10,78,295,28,08,66,324,24,07,70,150,28,1*78,1621322365804
$GBGSV,4,2,16,01,47,122,,02,46,234,,03,63,188,,04,33,108,,1*7B,1621322365804
$GBGSV,4,3,16,05,23,254,,06,06,168,,09,02,194,,13,59,272,,1*70,1621322365804
$GBGSV,4,4,16,16,04,174,,20,25,178,,29,12,293,,30,45,343,,1*7D,1621322365804
$GNGSA,A,3,02,06,14,19,28,30,,,,,,,1.0,0.6,0.7,1*31,1621322365814
$GNGSA,A,3,76,87,,,,,,,,,,,1.0,0.6,0.7,2*3C,1621322365814
$GNGSA,A,3,13,21,26,,,,,,,,,,1.0,0.6,0.7,3*36,1621322365814
$GNGSA,A,3,08,10,,,,,,,,,,,1.0,0.6,0.7,4*3D,1621322365814
$GNGSA,A,3,02,,,,,,,,,,,,1.0,0.6,0.7,5*37,1621322365814
$GNVTG,180.3,T,180.3,M,0.7,N,1.4,K,A*3F,1621322365814
$GNDTM,P90,,0000.000018,S,00000.000001,W,0.993,W84*47,1621322365814
$GNRMC,072051.00,A,2218.101685,N,11410.828363,E,0.7,180.3,180521,2.2,W,A,V*43,1621322365814
$GNGNS,072051.00,2218.101685,N,11410.828363,E,AAAAAN,14,0.6,12.5,-1.2,,,V*04,1621322365814
$GNGGA,072051.00,2218.101685,N,11410.828363,E,1,12,0.6,12.5,M,-1.2,M,,*5D,1621322365814
$GPGSV,3,1,12,02,23,264,31,04,07,094,26,06,49,291,40,09,13,126,19,1*6D,1621322366806
$GPGSV,3,2,12,14,63,165,40,17,51,022,28,19,44,344,25,28,81,208,35,1*6B,1621322366806
$GPGSV,3,3,12,30,09,188,35,03,24,043,,22,00,000,,24,01,293,,1*67,1621322366806
$GPGSV,1,1,03,03,24,043,25,06,49,291,34,14,63,165,22,8*5F,1621322366806
$GLGSV,2,1,08,86,33,008,24,77,23,313,18,76,49,253,31,87,17,296,34,1*73,1621322366806
$GLGSV,2,2,08,85,11,054,28,71,37,092,25,72,25,151,37,70,15,042,,1*7E,1621322366806
$GAGSV,3,1,10,13,49,352,28,15,18,046,26,21,57,285,36,26,30,279,35,7*7C,1621322366806
$GAGSV,3,2,10,01,14,319,,03,07,060,,07,15,161,,08,23,109,,7*7A,1621322366806
$GAGSV,3,3,10,27,49,181,,30,02,154,,7*73,1621322366806
$GAGSV,1,1,04,13,49,352,16,15,18,046,23,21,57,285,29,26,30,279,36,1*78,1621322366806
$GQGSV,1,1,03,-190,42,164,40,-189,57,052,33,-191,39,119,,1*4D,1621322366806
$GQGSV,1,1,02,-190,42,164,32,-189,57,052,28,8*6D,1621322366806
$GBGSV,4,1,16,27,33,053,29,10,78,295,29,08,66,324,24,07,70,150,28,1*72,1621322366806
$GBGSV,4,2,16,01,47,122,,02,46,234,,03,63,188,,04,33,108,,1*7B,1621322366806
$GBGSV,4,3,16,05,23,254,,06,06,168,,09,02,194,,13,59,272,,1*70,1621322366806
$GBGSV,4,4,16,16,04,174,,20,25,178,,29,12,293,,30,45,343,,1*7D,1621322366806
$GNGSA,A,3,02,06,14,19,28,30,,,,,,,1.0,0.6,0.7,1*31,1621322366817
$GNGSA,A,3,76,87,,,,,,,,,,,1.0,0.6,0.7,2*3C,1621322366817
$GNGSA,A,3,13,21,26,,,,,,,,,,1.0,0.6,0.7,3*36,1621322366817
$GNGSA,A,3,10,,,,,,,,,,,,1.0,0.6,0.7,4*35,1621322366817
$GNGSA,A,3,02,,,,,,,,,,,,1.0,0.6,0.7,5*37,1621322366817
$GNVTG,180.1,T,180.1,M,1.7,N,3.2,K,A*3A,1621322366817
$GNDTM,P90,,0000.000018,S,00000.000001,W,0.993,W84*47,1621322366817
$GNRMC,072052.00,A,2218.101283,N,11410.828348,E,1.7,180.1,180521,2.2,W,A,V*48,1621322366817
$GNGNS,072052.00,2218.101283,N,11410.828348,E,AAAAAN,13,0.6,12.5,-1.2,,,V*0B,1621322366817
$GNGGA,072052.00,2218.101283,N,11410.828348,E,1,12,0.6,12.5,M,-1.2,M,,*55,1621322366817
$GPGSV,3,1,12,02,23,264,25,03,24,043,29,06,49,291,36,09,13,126,29,1*69,1621322367808
$GPGSV,3,2,12,14,63,165,39,17,51,022,28,19,44,344,22,28,81,208,35,1*62,1621322367808
$GPGSV,3,3,12,30,09,188,34,04,07,094,,22,00,000,,24,01,293,,1*6A,1621322367808
$GPGSV,1,1,03,03,24,043,20,06,49,291,30,14,63,165,22,8*5E,1621322367808
$GLGSV,2,1,08,86,33,008,25,77,23,313,20,76,49,253,32,87,17,296,34,1*7A,1621322367808
$GLGSV,2,2,08,85,11,054,31,71,37,092,22,72,25,151,36,70,15,042,,1*70,1621322367808
$GAGSV,3,1,10,13,49,352,30,15,18,046,26,21,57,285,36,26,30,279,36,7*76,1621322367808
$GAGSV,3,2,10,01,14,319,,03,07,060,,07,15,161,,08,23,109,,7*7A,1621322367808
$GAGSV,3,3,10,27,49,181,,30,02,154,,7*73,1621322367808
$GAGSV,1,1,04,13,49,352,16,15,18,046,23,21,57,285,29,26,30,279,36,1*78,1621322367808
$GQGSV,1,1,03,-190,42,164,39,-189,57,052,32,-191,39,119,,1*42,1621322367808
$GQGSV,1,1,02,-190,42,164,32,-189,57,052,27,8*62,1621322367808
$GBGSV,4,1,16,27,33,053,28,10,78,295,28,08,66,324,23,07,70,150,27,1*7A,1621322367808
$GBGSV,4,2,16,01,47,122,,02,46,234,,03,63,188,,04,33,108,,1*7B,1621322367808
$GBGSV,4,3,16,05,23,254,,06,06,168,,09,02,194,,13,59,272,,1*70,1621322367808
$GBGSV,4,4,16,16,04,174,,20,25,178,,29,12,293,,30,45,343,,1*7D,1621322367808
$GNGSA,A,3,02,06,14,28,30,,,,,,,,1.0,0.6,0.7,1*39,1621322367822
$GNGSA,A,3,76,87,,,,,,,,,,,1.0,0.6,0.7,2*3C,1621322367822
$GNGSA,A,3,13,21,26,,,,,,,,,,1.0,0.6,0.7,3*36,1621322367822
$GNGSA,A,3,10,,,,,,,,,,,,1.0,0.6,0.7,4*35,1621322367822
$GNGSA,A,3,02,,,,,,,,,,,,1.0,0.6,0.7,5*37,1621322367822
$GNVTG,179.9,T,179.9,M,2.7,N,5.1,K,A*3C,1621322367822
$GNDTM,P90,,0000.000018,S,00000.000001,W,0.993,W84*47,1621322367822
$GNRMC,072053.00,A,2218.100641,N,11410.828339,E,2.7,179.9,180521,2.2,W,A,V*49,1621322367822
$GNGNS,072053.00,2218.100641,N,11410.828339,E,AAAAAN,12,0.6,12.0,-1.2,,,V*03,1621322367822
$GNGGA,072053.00,2218.100641,N,11410.828339,E,1,12,0.6,12.0,M,-1.2,M,,*5C,1621322367822
$GPGSV,3,1,12,02,23,264,25,03,24,043,31,06,49,291,38,09,13,126,35,1*63,1621322368803
$GPGSV,3,2,12,14,63,165,40,17,51,022,29,19,44,344,26,28,81,208,36,1*6A,1621322368803
$GPGSV,3,3,12,30,09,188,34,04,07,094,,22,00,000,,24,01,293,,1*6A,1621322368803
$GPGSV,1,1,03,03,24,043,20,06,49,291,34,14,63,165,22,8*5A,1621322368803
$GLGSV,2,1,08,86,33,008,24,77,23,313,22,76,49,253,32,87,17,296,37,1*7A,1621322368803
$GLGSV,2,2,08,85,11,054,32,71,37,092,22,72,25,151,38,70,15,042,,1*7D,1621322368803
$GAGSV,3,1,10,13,49,352,29,15,18,046,28,21,57,285,35,26,30,279,34,7*71,1621322368803
$GAGSV,3,2,10,01,14,319,,03,07,060,,07,15,161,,08,23,109,,7*7A,1621322368803
$GAGSV,3,3,10,27,49,181,,30,02,154,,7*73,1621322368803
$GAGSV,1,1,04,13,49,352,17,15,18,046,23,21,57,285,29,26,30,279,37,1*78,1621322368803
$GQGSV,1,1,03,-191,39,119,22,-190,42,164,39,-189,57,052,33,1*43,1621322368803
$GQGSV,1,1,02,-190,42,164,32,-189,57,052,27,8*62,1621322368803
$GBGSV,4,1,16,27,33,053,31,10,78,295,30,08,66,324,24,07,70,150,26,1*7D,1621322368803
$GBGSV,4,2,16,01,47,122,,02,46,234,,03,63,188,,04,33,108,,1*7B,1621322368803
$GBGSV,4,3,16,05,23,254,,06,06,168,,09,02,194,,13,59,272,,1*70,1621322368803
$GBGSV,4,4,16,16,04,174,,20,25,178,,29,12,293,,30,45,343,,1*7D,1621322368803
$GNGSA,A,3,02,03,06,14,17,19,28,30,,,,,0.9,0.6,0.7,1*3C,1621322368815
$GNGSA,A,3,72,76,85,87,,,,,,,,,0.9,0.6,0.7,2*3C,1621322368815
$GNGSA,A,3,13,15,21,26,,,,,,,,,0.9,0.6,0.7,3*3A,1621322368815
$GNGSA,A,3,08,10,27,,,,,,,,,,0.9,0.6,0.7,4*30,1621322368815
$GNGSA,A,3,02,03,,,,,,,,,,,0.9,0.6,0.7,5*3C,1621322368815
$GNVTG,179.9,T,179.9,M,3.6,N,6.7,K,A*39,1621322368815
$GNDTM,P90,,0000.000018,S,00000.000001,W,0.993,W84*47,1621322368815
$GNRMC,072054.00,A,2218.099803,N,11410.828277,E,3.6,179.9,180521,2.2,W,A,V*4C,1621322368815
$GNGNS,072054.00,2218.099803,N,11410.828277,E,AAAAAN,21,0.6,11.6,-1.2,,,V*03,1621322368815
$GNGGA,072054.00,2218.099803,N,11410.828277,E,1,12,0.6,11.6,M,-1.2,M,,*5C,1621322368815
$GPGSV,3,1,12,02,23,264,27,03,24,042,25,06,49,292,38,09,13,125,36,1*66,1621322369810
$GPGSV,3,2,12,14,62,165,40,17,51,023,30,19,44,345,22,28,80,205,35,1*68,1621322369810
$GPGSV,3,3,12,30,09,187,34,04,07,092,,22,00,000,,24,01,292,,1*62,1621322369810
$GPGSV,1,1,03,03,24,042,20,06,49,292,33,14,62,165,22,8*5E,1621322369810
$GLGSV,2,1,08,86,33,008,24,77,23,313,22,76,49,253,34,87,17,296,36,1*7D,1621322369810
$GLGSV,2,2,08,85,11,054,32,71,37,092,24,72,25,151,40,70,15,042,,1*74,1621322369810
$GAGSV,3,1,10,13,49,354,26,15,18,047,28,21,57,284,35,26,31,281,35,7*7F,1621322369810
$GAGSV,3,2,10,01,14,319,,03,07,059,,07,16,160,,08,23,108,,7*73,1621322369810
$GAGSV,3,3,10,27,48,181,,30,01,154,,7*71,1621322369810
$GAGSV,1,1,04,13,49,354,17,15,18,047,22,21,57,284,28,26,31,281,35,1*7A,1621322369810
$GQGSV,1,1,03,-191,40,118,22,-190,41,164,39,-189,57,052,33,1*4F,1621322369810
$GQGSV,1,1,02,-190,41,164,31,-189,57,052,26,8*63,1621322369810
$GBGSV,4,1,16,27,32,054,34,10,78,292,31,08,65,326,26,07,69,151,28,1*7C,1621322369810
$GBGSV,4,2,16,01,47,122,,02,46,234,,03,63,188,,04,33,108,,1*7B,1621322369810
$GBGSV,4,3,16,05,23,254,,06,06,168,,09,02,194,,13,58,274,,1*77,1621322369810
$GBGSV,4,4,16,16,04,174,,20,26,177,,29,13,293,,30,45,344,,1*77,1621322369810
$GNGSA,A,3,02,06,14,28,30,,,,,,,,0.9,0.6,0.7,1*31,1621322369819
$GNGSA,A,3,72,76,87,,,,,,,,,,0.9,0.6,0.7,2*31,1621322369819
$GNGSA,A,3,13,21,26,,,,,,,,,,0.9,0.6,0.7,3*3E,1621322369819
$GNGSA,A,3,08,10,,,,,,,,,,,0.9,0.6,0.7,4*35,1621322369819
$GNGSA,A,3,02,,,,,,,,,,,,0.9,0.6,0.7,5*3F,1621322369819
$GNVTG,180.0,T,180.0,M,3.1,N,5.7,K,A*3D,1621322369819
$GNDTM,P90,,0000.000018,S,00000.000001,W,0.993,W84*47,1621322369819
$GNRMC,072055.00,A,2218.098932,N,11410.828251,E,3.1,180.0,180521,2.2,W,A,V*43,1621322369819
$GNGNS,072055.00,2218.098932,N,11410.828251,E,AAAAAN,14,0.6,11.3,-1.2,,,V*07,1621322369819
$GNGGA,072055.00,2218.098932,N,11410.828251,E,1,12,0.6,11.3,M,-1.2,M,,*5E,1621322369819
$GPGSV,3,1,12,02,23,264,24,03,24,042,25,06,49,292,38,09,13,125,32,1*61,1621322370805
$GPGSV,3,2,12,14,62,165,38,17,51,023,26,19,44,345,22,28,80,205,34,1*61,1621322370805
$GPGSV,3,3,12,30,09,187,33,04,07,092,,22,00,000,,24,01,292,,1*65,1621322370805
$GPGSV,1,1,03,03,24,042,25,06,49,292,33,14,62,165,22,8*5B,1621322370805
$GLGSV,2,1,08,86,33,008,20,77,24,313,22,76,49,251,30,87,18,298,35,1*7A,1621322370805
$GLGSV,2,2,08,85,10,056,26,71,37,091,22,72,26,150,36,70,14,042,,1*75,1621322370805
$GAGSV,3,1,10,13,49,354,24,15,18,047,28,21,57,284,34,26,31,281,36,7*7F,1621322370805
$GAGSV,3,2,10,01,14,319,,03,07,059,,07,16,160,,08,23,108,,7*73,1621322370805
$GAGSV,3,3,10,27,48,181,,30,01,154,,7*71,1621322370805
$GAGSV,1,1,04,13,49,354,17,15,18,047,26,21,57,284,28,26,31,281,34,1*7F,1621322370805
$GQGSV,1,1,03,-190,41,164,38,-189,57,052,34,-191,40,118,,1*49,1621322370805
$GQGSV,1,1,02,-190,41,164,31,-189,57,052,25,8*60,1621322370805
$GBGSV,4,1,16,27,32,054,32,10,78,292,29,08,65,326,23,07,69,151,28,1*76,1621322370805
$GBGSV,4,2,16,01,47,122,,02,46,234,,03,63,188,,04,33,108,,1*7B,1621322370805
$GBGSV,4,3,16,05,23,254,,06,06,168,,09,02,194,,13,58,274,,1*77,1621322370805
$GBGSV,4,4,16,16,04,174,,20,26,177,,29,13,293,,30,45,344,,1*77,1621322370805
$GNGSA,A,3,02,03,06,14,17,28,30,,,,,,0.9,0.6,0.7,1*34,1621322370817
$GNGSA,A,3,76,85,87,,,,,,,,,,0.9,0.6,0.7,2*39,1621322370817
$GNGSA,A,3,21,26,,,,,,,,,,,0.9,0.6,0.7,3*3C,1621322370817
$GNGSA,A,3,10,27,,,,,,,,,,,0.9,0.6,0.7,4*38,1621322370817
$GNGSA,A,3,02,03,,,,,,,,,,,0.9,0.6,0.7,5*3C,1621322370817
$GNVTG,180.0,T,180.0,M,1.3,N,2.4,K,A*39,1621322370817
$GNDTM,P90,,0000.000018,S,00000.000001,W,0.993,W84*47,1621322370817
$GNRMC,072056.00,A,2218.098307,N,11410.828127,E,1.3,180.0,180521,2.2,W,A,V*4E,1621322370817
$GNGNS,072056.00,2218.098307,N,11410.828127,E,AAAAAN,16,0.6,11.3,-1.2,,,V*08,1621322370817
$GNGGA,072056.00,2218.098307,N,11410.828127,E,1,12,0.6,11.3,M,-1.2,M,,*53,1621322370817
$GPGSV,3,1,12,02,23,264,31,03,24,042,25,06,49,292,37,09,13,125,31,1*69,1621322371805
$GPGSV,3,2,12,14,62,165,37,17,51,023,22,19,44,345,22,28,80,205,33,1*6D,1621322371805
$GPGSV,3,3,12,30,09,187,29,04,07,092,,22,00,000,,24,01,292,,1*6E,1621322371805
$GPGSV,1,1,03,03,24,042,24,06,49,292,34,14,62,165,22,8*5D,1621322371805
$GLGSV,2,1,08,86,33,008,20,77,24,313,22,76,49,251,32,87,18,298,30,1*7D,1621322371805
$GLGSV,2,2,08,85,10,056,23,71,37,091,27,72,26,150,35,70,14,042,,1*76,1621322371805
$GAGSV,3,1,10,13,49,354,22,15,18,047,25,21,57,284,33,26,31,281,34,7*71,1621322371805
$GAGSV,3,2,10,01,14,319,,03,07,059,,07,16,160,,08,23,108,,7*73,1621322371805
$GAGSV,3,3,10,27,48,181,,30,01,154,,7*71,1621322371805
$GAGSV,1,1,04,13,49,354,17,15,18,047,26,21,57,284,29,26,31,281,35,1*7F,1621322371805
$GQGSV,1,1,03,-191,40,118,24,-190,41,164,36,-189,57,052,34,1*41,1621322371805
$GQGSV,1,1,02,-190,41,164,31,-189,57,052,26,8*63,1621322371805
$GBGSV,4,1,16,27,32,054,23,10,78,292,27,08,65,326,23,07,69,151,27,1*77,1621322371805
$GBGSV,4,2,16,01,47,122,,02,46,234,,03,63,188,,04,33,108,,1*7B,1621322371805
$GBGSV,4,3,16,05,23,254,,06,06,168,,09,02,194,,13,58,274,,1*77,1621322371805
$GBGSV,4,4,16,16,04,174,,20,26,177,,29,13,293,,30,45,344,,1*77,1621322371805
$GNGSA,A,3,02,06,14,17,28,30,,,,,,,0.9,0.6,0.7,1*37,1621322371816
$GNGSA,A,3,76,87,,,,,,,,,,,0.9,0.6,0.7,2*34,1621322371816
$GNGSA,A,3,13,21,26,,,,,,,,,,0.9,0.6,0.7,3*3E,1621322371816
$GNGSA,A,3,10,,,,,,,,,,,,0.9,0.6,0.7,4*3D,1621322371816
$GNGSA,A,3,03,,,,,,,,,,,,0.9,0.6,0.7,5*3E,1621322371816
$GNVTG,,T,,M,0.0,N,0.0,K,A*3D,1621322371816
$GNDTM,P90,,0000.000018,S,00000.000001,W,0.993,W84*47,1621322371816
$GNRMC,072057.00,A,2218.098162,N,11410.828059,E,0.0,,180521,2.2,W,A,V*63,1621322371816
$GNGNS,072057.00,2218.098162,N,11410.828059,E,AAAAAN,13,0.6,11.4,-1.2,,,V*02,1621322371816
$GNGGA,072057.00,2218.098162,N,11410.828059,E,1,12,0.6,11.4,M,-1.2,M,,*5C,1621322371816
$GPGSV,3,1,12,02,23,264,29,03,24,042,24,04,07,092,25,06,49,292,36,1*60,1621322372806
$GPGSV,3,2,12,09,13,125,30,14,62,165,38,17,51,023,22,19,44,345,21,1*6A,1621322372806
$GPGSV,3,3,12,28,80,205,34,30,09,187,31,22,00,000,,24,01,292,,1*6D,1621322372806
$GPGSV,1,1,03,03,24,042,26,06,49,292,35,14,62,165,22,8*5E,1621322372806
$GLGSV,2,1,08,86,33,008,21,77,24,313,18,76,49,251,33,87,18,298,32,1*76,1621322372806
$GLGSV,2,2,08,85,10,056,23,71,37,091,28,72,26,150,37,70,14,042,,1*7B,1621322372806
$GAGSV,3,1,10,13,49,354,22,15,18,047,29,21,57,284,31,26,31,281,35,7*7E,1621322372806
$GAGSV,3,2,10,01,14,319,,03,07,059,,07,16,160,,08,23,108,,7*73,1621322372806
$GAGSV,3,3,10,27,48,181,,30,01,154,,7*71,1621322372806
$GAGSV,1,1,04,13,49,354,18,15,18,047,24,21,57,284,30,26,31,281,36,1*79,1621322372806
$GQGSV,1,1,03,-191,40,118,27,-190,41,164,37,-189,57,052,34,1*43,1621322372806
$GQGSV,1,1,02,-190,41,164,32,-189,57,052,25,8*63,1621322372806
$GBGSV,4,1,16,27,32,054,24,10,78,292,28,08,65,326,23,07,69,151,27,1*7F,1621322372806
$GBGSV,4,2,16,01,47,122,,02,46,234,,03,63,188,,04,33,108,,1*7B,1621322372806
$GBGSV,4,3,16,05,23,254,,06,06,168,,09,02,194,,13,58,274,,1*77,1621322372806
$GBGSV,4,4,16,16,04,174,,20,26,177,,29,13,293,,30,45,344,,1*77,1621322372806
$GNGSA,A,3,02,06,09,14,19,28,30,,,,,,0.9,0.6,0.7,1*30,1621322372822
$GNGSA,A,3,72,76,86,87,,,,,,,,,0.9,0.6,0.7,2*3F,1621322372822
$GNGSA,A,3,21,26,,,,,,,,,,,0.9,0.6,0.7,3*3C,1621322372822
$GNGSA,A,3,07,08,10,,,,,,,,,,0.9,0.6,0.7,4*32,1621322372822
$GNGSA,A,3,01,02,03,,,,,,,,,,0.9,0.6,0.7,5*3D,1621322372822
$GNVTG,,T,,M,0.0,N,0.0,K,A*3D,1621322372822
$GNDTM,P90,,0000.000018,S,00000.000001,W,0.993,W84*47,1621322372822
$GNRMC,072058.00,A,2218.098164,N,11410.828055,E,0.0,,180521,2.2,W,A,V*66,1621322372822
