     3.03           OBSERVATION DATA    M: Mixed            RINEX VERSION / TYPE
RTKCONV demo5 b33c                      20210520 090924 UTC PGM / RUN BY / DATE 
log: C:\Users\Ivan_PolyU_Dktp\Dropbox\HUAWEI Exp\20210518_  COMMENT             
format: RINEX                                               COMMENT             
Geo++                                                       MARKER NAME         
                                                            MARKER NUMBER       
                                                            MARKER TYPE         
                                                            OBSERVER / AGENCY   
unknown             Google              Pixel 4             REC # / TYPE / VERS 
unknown             Pixel 4                                 ANT # / TYPE        
 -2418133.5169  5385865.7344  2405575.6893                  APPROX POSITION XYZ 
        0.0000        0.0000        0.0000                  ANTENNA: DELTA H/E/N
G    4 C1C L1C D1C S1C                                      SYS / # / OBS TYPES 
R    4 C1C L1C D1C S1C                                      SYS / # / OBS TYPES 
E    8 C1C L1C D1C S1C C5Q L5Q D5Q S5Q                      SYS / # / OBS TYPES 
J    8 C1C L1C D1C S1C C5Q L5Q D5Q S5Q                      SYS / # / OBS TYPES 
  2021     5    18     7    20   46.4406727     GPS         TIME OF FIRST OBS   
  2021     5    18     7    27   24.4406613     GPS         TIME OF LAST OBS    
G                                                           SYS / PHASE SHIFT   
R                                                           SYS / PHASE SHIFT   
E                                                           SYS / PHASE SHIFT   
J                                                           SYS / PHASE SHIFT   
  3 R01  1 R09 -2 R17  4                                    GLONASS SLOT / FRQ #
 C1C    0.000 C1P    0.000 C2C    0.000 C2P    0.000        GLONASS COD/PHS/BIS 
                                                            END OF HEADER       
> 2021  5 18  7 20 46.4406727  0 13                     
E13  24311550.577 1                      -783.850          27.000    24309418.153 1                      -582.550          23.000  
E15  26667677.364 1                     -1585.650          27.500    26665565.626 1 104641406.77811     -1182.382          26.750  
E21  24195714.668 1                       290.950          20.250                                                                  
G 3  23263618.845 1 122251110.972 1     -2905.279          40.750  
G 6  21335211.953 1                       228.150          22.500  
G17  21446053.619 1                       552.100          25.000  
G19  21429899.602 1 112614930.401 1      1302.120          31.750  
G30  24787437.827 1 130258721.86511     -2406.576          28.500  
J 2  35918477.569 1 188752756.92611      -110.086          28.250    35916115.204 1 140942549.42311       -82.262          26.750  
J 3  39488903.214 1                       572.200          25.500                                                                  
R 7  21152969.317 1                      1083.900          19.000  
R21  23563495.844 1 126093042.93311     -1538.214          28.500  
R23  22659944.460 1                       993.250          25.750  
> 2021  5 18  7 20 47.4406727  0 14                     
E13  24311679.615 1                      -785.950          22.500                                                                  
E15  26667972.188 1 140141140.20711     -1579.422          29.000    26665867.345 1 104642587.504 1     -1178.781          24.500  
E21  24195658.435 1                       304.600          23.000                                                                  
G 3  23264168.192 1 122254014.164 1     -2901.197          41.000  
G 6  21335159.617 1                       239.550          21.000  
G 9  24399401.886 1                      1818.600          21.000  
G17  21445957.213 1 112699264.90211       556.804          25.750  
G19  21429651.801 1 112613626.207 1      1306.349          31.000  
G30  24787880.148 1 130261126.46211     -2402.145          26.750  
J 2  35918475.597 1 188752865.10011      -105.958          27.250    35916132.719 1                       -77.850          26.500  
J 3  39488797.215 1                       574.400          24.500                                                                  
R 8  22050718.646 1                      3543.700          16.750  
R21  23563785.871 1 126094578.83211     -1533.645          26.500  
R23  22659740.129 1                       998.250          25.250  
> 2021  5 18  7 20 48.4406727  0 13                     
E13  24311838.585 1                      -779.950          23.000                                                                  
E15  26668274.458 1                     -1578.100          28.500    26666166.617 1                     -1175.050          23.000  
E21  24195592.560 1                       291.250          24.000                                                                  
E26  25215648.990 1                       644.100          18.500                                                                  
G 3  23264724.387 1 122256914.546 1     -2900.402          40.000  
G 9  24399018.831 1                      1823.200          24.000  
G17  21445848.768 1                       557.650          24.250  
G19  21429422.840 1 112612319.39411      1306.611          27.750  
G28  20324037.682 1                      -257.050          17.000  
G30  24788323.021 1 130263527.05011     -2399.705          26.750  
J 2  35918500.860 1 188752970.04911      -104.858          29.000    35916157.082 1 140942714.05111       -78.169          26.500  
J 3  39488711.854 1                       578.750          23.250                                                                  
R23  22659564.830 1                      1003.000          26.250  
> 2021  5 18  7 20 49.4406727  0 14                     
E13  24311998.668 1                      -788.600          25.000                                                                  
E15  26668579.042 1                     -1580.250          24.500    26666467.603 1 104644945.98511     -1179.935          23.750  
G 3  23265276.599 1 122259819.245 1     -2904.156          37.250  
G 6  21335094.336 1                       230.450          21.000  
G17  21445750.431 1                       556.500          24.500  
G19  21429166.212 1 112611015.34411      1304.786          28.000  
G30  24788805.382 1 130265929.65411     -2400.438          29.500  
J 2  35918518.842 1 188753078.473 1      -105.281          29.500    35916177.163 1                       -79.000          24.000  
J 3  39488586.535 1                       578.500          21.500    39486231.366 1                       433.800          19.000  
R 7  21152265.606 1                      1089.300          19.250  
R13  22164442.890 1                      2041.950          16.500  
R21  23564399.021 1                     -1530.850          23.000  
R22  21485698.975 1                      -728.750          18.500  
R23  22659365.163 1 121212323.87011       998.133          28.250  
> 2021  5 18  7 20 50.4406727  0 16                     
E13  24312143.471 1                      -784.200          25.000                                                                  
E15  26668898.023 1                     -1579.400          24.250                                                                  
G 2  23564966.830 1                      1178.150          16.000  
G 3  23265827.620 1 122262723.02811     -2904.345          32.000  
G 6  21335034.380 1                       235.800          22.500  
G14  20716167.113 1                     -1902.400          21.750  
G17  21445620.923 1 112697498.32011       555.168          26.000  
G19  21428922.183 1 112609711.75511      1301.509          28.500  
G30  24789255.673 1 130268324.70011     -2390.560          29.750  
J 2  35918528.138 1 188753179.11311       -98.786          30.000    35916195.752 1 140942865.80411       -72.293          24.250  
J 3  39488485.807 1                       577.450          23.750                                                                  
R 8  22048720.606 1                      3544.850          21.000  
R12  20259602.386 1                     -1452.850          17.500  
R21  23564686.524 1                     -1531.950          23.000  
R22  21485882.450 1                      -731.050          22.750  
R23  22659172.099 1 121211323.68111       999.635          26.500  
> 2021  5 18  7 20 51.4406726  0 14                     
G 3  23266389.886 1 122265471.82911     -2907.038          27.000  
G 6  21334989.866 1                       237.150          23.500  
G 9  24397996.691 1                      1817.300          19.250  
G14  20716467.960 1                     -1898.400          24.750  
G17  21445518.549 1                       550.050          22.500  
G19  21428636.636 1                      1296.250          25.500  
G30  24789673.439 1 130270556.09711     -2387.462          29.500  
J 1  37433630.509 1                      -138.500          16.500                                                                  
J 2  35918523.796 1 188753121.97611       -98.642          31.000    35916182.417 1                       -72.650          29.250  
R 7  21151844.555 1                      1088.150          20.000  
R 8  22048000.659 1                      3547.450          25.500  
R21  23564920.518 1                     -1521.550          25.250  
R22  21485954.856 1                      -740.300          21.750  
R23  22658936.317 1                       994.000          22.500  
> 2021  5 18  7 20 52.4406726  0 13                     
E13  24312426.450 1                      -795.900          21.000                                                                  
E21  24195333.811 1                       296.850          19.000                                                                  
E26  25215156.702 1                       640.850          19.750                                                                  
G 2  23564461.655 1                      1184.350          19.250  
G 6  21334907.243 1                       226.200          22.000  
G14  20716822.434 1 108867636.34511     -1897.929          33.750  
G17  21445382.862 1                       540.250          22.500  
G30  24790136.438 1 130272939.82711     -2383.545          27.250  
J 2  35918533.809 1 188753215.738 1       -93.251          35.500    35916194.228 1 140942859.65711       -71.506          30.750  
R 7  21151696.277 1                      1091.400          23.500  
R12  20260172.267 1                     -1448.250          25.250  
R21  23565238.417 1                     -1522.750          23.750  
R23  22658724.184 1                       998.500          21.500  
> 2021  5 18  7 20 53.4406726  0 19                     
E13  24312560.368 1                      -782.550          22.750                                                                  
E15  26670016.135 1                     -1563.000          22.750                                                                  
E21  24195276.162 1                       295.300          31.500    24193158.428 1                       216.250          16.250  
E26  25215019.608 1 132505822.00611       647.390          29.750    25212888.983 1                       479.350          20.000  
G 2  23564210.340 1 123830761.01311      1187.554          31.000  
G 3  23267703.907 1                     -2888.850          25.750  
G 6  21334847.495 1 112115379.82511       234.175          31.500  
G14  20717180.297 1 108869528.783 1     -1887.630          40.000  
G17  21445408.556 1                       562.050          21.750  
G19  21428174.686 1                      1296.350          20.750  
G28  20324218.939 1                      -253.450          27.250  
G30  24790582.440 1 130275316.65111     -2370.092          28.750  
J 2  35918547.510 1 188753304.910 1       -83.512          37.250    35916210.628 1 140942926.138 1       -62.299          28.250  
J 3  39488098.361 1                       575.250          23.500                                                                  
R 7  21151424.277 1 113225230.16611      1086.638          32.000  
R 8  22046697.792 1                      3548.350          20.000  
R12  20260429.699 1 108227578.83811     -1438.693          30.250  
R21  23565479.661 1                     -1518.400          22.250  
R22  21486409.671 1                      -710.750          23.250  
> 2021  5 18  7 20 54.4406726  0 16                     
E13  24312708.009 1                      -801.400          24.250                                                                  
E21  24195216.646 1 127146721.47511       291.449          30.750    24193098.313 1  94938913.18711       217.396          29.750  
E26  25214890.241 1 132505176.79011       641.650          31.500    25212768.610 1  98940319.31611       479.237          33.250  
G 2  23563984.439 1 123829572.807 1      1184.336          31.250  
G 6  21334805.368 1 112115147.147 1       228.669          36.500  
G 9  24397035.430 1                      1829.150          21.500  
G14  20717534.196 1 108871415.784 1     -1890.433          39.000  
G17  21445192.548 1                       541.300          23.500  
G28  20324263.751 1 106804726.17311      -256.523          33.750  
G30  24791042.465 1                     -2368.200          25.250  
J 2  35918570.737 1 188753387.221 1       -85.234          36.000    35916226.060 1 140942987.641 1       -63.714          29.250  
J 3  39487988.481 1 207510779.72011       572.507          29.750    39485648.900 1                       432.000          17.500  
R 7  21151308.100 1                      1085.650          22.250  
R12  20260678.970 1 108229016.54411     -1441.347          30.000  
R21  23565784.093 1                     -1511.000          23.250  
R22  21486450.286 1                      -704.550          22.750  
> 2021  5 18  7 20 55.4406726  0 17                     
E13  24312856.267 1                      -805.150          27.250                                                                  
E15  26670608.230 1                     -1557.050          26.500                                                                  
E21  24195167.641 1 127146434.890 1       285.841          33.000    24193043.612 1  94938699.145 1       212.751          29.000  
E26  25214774.382 1 132504540.14811       636.156          31.750    25212647.355 1  98939843.869 1       474.095          34.250  
G 2  23563758.857 1 123828392.649 1      1179.819          32.500  
G 6  21334766.856 1 112114923.268 1       222.972          36.250  
G14  20717900.403 1 108873310.470 1     -1895.274          38.250  
G17  21445053.906 1                       532.550          24.250  
G19  21427680.333 1                      1285.050          19.500  
G28  20324305.284 1 106804987.147 1      -261.830          34.000  
G30  24791485.119 1                     -2374.050          25.500  
J 2  35918581.691 1 188753476.228 1       -89.001          35.750    35916242.110 1 140943054.081 1       -66.477          31.500  
J 3  39487884.614 1 207510212.45011       566.488          30.750    39485542.635 1 154949749.65511       422.469          23.500  
R12  20260970.230 1 108230459.64311     -1443.374          27.250  
R21  23566042.376 1                     -1508.450          25.500  
R22  21486712.166 1                      -702.550          25.500  
R23  22658198.863 1                       987.500          27.000  
> 2021  5 18  7 20 56.4406726  0 19                     
E13  24313012.458 1 127765742.91211      -801.404          30.500                                                                  
E15  26670911.019 1                     -1552.050          28.000    26668560.646 1                     -1185.850          23.000  
E21  24195107.981 1 127146147.215 1       290.520          36.000    24192987.249 1  94938484.380 1       217.268          30.000  
E26  25214646.370 1 132503901.902 1       641.097          34.250    25212526.537 1  98939367.236 1       479.400          35.500  
G 2  23563544.504 1 123827211.27611      1184.688          30.250  
G 3  23269133.920 1                     -2923.350          29.750  
G 6  21334720.087 1 112114698.286 1       228.063          39.250  
G14  20718262.851 1 108875203.670 1     -1890.418          39.750  
G19  21427418.613 1                      1293.500          21.500  
G28  20324360.444 1 106805247.037 1      -256.982          35.500  
G30  24791926.712 1 130282453.74311     -2367.430          29.500  
J 2  35918597.279 1 188753562.877 1       -83.591          38.000    35916258.897 1 140943118.845 1       -62.506          30.000  
J 3  39487773.090 1 207509643.977 1       571.607          32.500    39485435.308 1                       427.550          25.750  
R 7  21150984.784 1                      1092.200          20.500  
R 8  22044701.777 1                      3554.850          19.250  
R12  20261248.136 1 108231903.56011     -1442.374          26.500  
R21  23566321.481 1 126108145.58611     -1504.322          29.250  
R22  21486848.570 1 114698256.45611      -700.901          27.500  
R23  22658019.585 1 121205126.21911       989.844          31.250  
> 2021  5 18  7 20 57.4406726  0 21                     
E13  24313158.175 1 127766540.90611      -800.275          30.000                                                                  
E15  26671200.636 1                     -1553.800          31.000                                                                  
E21  24195049.840 1 127145854.279 1       289.805          35.500    24192932.705 1  94938265.571 1       215.810          29.750  
E26  25214525.272 1 132503257.998 1       640.598          34.750    25212404.540 1  98938886.427 1       477.725          35.250  
G 2  23563317.579 1 123826023.13011      1183.675          33.000  
G 3  23269689.154 1 122283041.50311     -2922.924          35.000  
G 6  21334679.333 1 112114467.797 1       227.436          41.000  
G 9  24395878.709 1                      1828.950          22.250  
G14  20718621.121 1 108877091.891 1     -1892.214          40.750  
G17  21444866.852 1                       541.650          22.250  
G19  21427188.390 1                      1296.650          23.500  
G28  20324415.924 1 106805501.883 1      -258.457          37.500  
G30  24792382.115 1 130284819.024 1     -2369.533          32.250  
J 2  35918616.483 1 188753644.275 1       -85.621          38.750    35916274.804 1 140943179.629 1       -63.990          30.000  
J 3  39487663.683 1 207509069.435 1       572.044          34.500    39485324.703 1 154948895.16211       427.083          25.000  
R 7  21150748.566 1                      1095.250          24.500  
R 8  22044040.752 1 118044836.51911      3559.797          26.750  
R12  20261538.053 1                     -1446.200          25.500  
R21  23566641.678 1                     -1514.300          26.000  
R22  21486961.610 1 114698954.936 1      -702.732          31.250  
R23  22657826.837 1 121204132.77111       990.502          31.000  
> 2021  5 18  7 20 58.4406725  0 21                     
E13  24313290.378 1                      -799.900          28.000                                                                  
E15  26671477.639 1                     -1563.950          31.250                                                                  
E21  24194969.190 1 127145409.453 1       286.535          37.000    24192847.859 1  94937933.356 1       214.106          27.750  
E26  25214378.368 1 132502461.947 1       638.029          36.000    25212252.240 1  98938291.968 1       476.384          33.250  
G 2  23563046.261 1 123824684.52411      1179.922          30.750  
G 3  23270420.642 1                     -2894.100          27.500  
G 6  21334600.482 1 112114084.718 1       225.214          39.250  
G14  20718948.789 1 108878830.419 1     -1898.729          40.000  
G17  21444775.110 1                       543.700          24.250  
G19  21426886.194 1                      1291.250          23.250  
G28  20324430.608 1 106805605.847 1      -263.087          36.500  
G30  24792809.914 1 130287036.255 1     -2378.954          32.250  
J 1  37433778.053 1                      -138.000          20.250                                                                  
J 2  35918600.589 1 188753576.643 1       -93.313          38.750    35916262.508 1 140943129.137 1       -69.714          28.750  
J 3  39487521.876 1 207508341.067 1       571.304          34.000    39485184.994 1                       424.350          23.250  
R 7  21150512.024 1                      1084.850          24.500  
R 8  22043305.356 1 118041121.261 1      3550.475          33.750  
R12  20261713.127 1 108234434.04011     -1449.361          29.000  
R21  23566862.619 1                     -1518.350          26.500  
R22  21487071.029 1 114699502.53511      -710.545          30.500  
R23  22657614.578 1 121202982.67511       990.324          31.000  
> 2021  5 18  7 20 59.4406725  0 21                     
E13  24313433.590 1                      -796.250          28.000                                                                  
E15  26671773.445 1                     -1572.700          27.250                                                                  
E21  24194913.639 1 127145126.191 1       285.980          35.250    24192792.908 1  94937721.884 1       213.915          27.000  
E26  25214249.668 1 132501827.12911       638.014          35.750    25212131.634 1  98937817.922 1       476.538          33.500  
G 2  23562833.020 1                      1173.350          25.000  
G 3  23270985.661 1 122289854.58711     -2899.911          30.500  
G 4  25005992.841 1 131407378.58811      1096.057          27.750  
G 6  21334568.315 1 112113862.274 1       225.882          40.000  
G14  20719310.250 1 108880734.677 1     -1903.335          38.750  
G17  21444635.917 1                       547.900          25.250  
G19  21426640.875 1                      1301.200          24.000  
G28  20324478.486 1 106805873.314 1      -265.447          35.250  
G30  24793264.909 1 130289422.642 1     -2387.405          32.750  
J 2  35918620.886 1 188753676.242 1       -99.456          38.500    35916280.706 1 140943203.445 1       -74.264          29.500  
J 3  39487423.455 1 207507771.665 1       573.604          33.750    39485078.479 1 154947928.14711       428.532          24.000  
R 7  21150339.854 1                      1082.350          24.750  
R 8  22042667.608 1 118037577.191 1      3544.080          33.250  
R12  20261990.645 1                     -1451.650          24.750  
R21  23567133.243 1 126112490.13511     -1522.921          28.000  
R22  21487211.842 1                      -719.200          21.500  
R23  22657417.226 1 121201994.17211       991.637          32.000  
> 2021  5 18  7 21  0.4406725  0 21                     
E13  24313588.764 1                      -791.850          28.250                                                                  
E15  26672066.823 1                     -1573.450          32.750                                                                  
E21  24194859.558 1 127144839.359 1       285.556          37.500    24192739.126 1  94937507.749 1       213.352          27.500  
E26  25214122.137 1 132501188.592 1       637.394          34.750    25212010.399 1  98937340.987 1       476.169          33.250  
G 2  23562608.057 1                      1176.750          24.000  
G 3  23271406.451 1                     -2912.650          25.000  
G 6  21334516.932 1 112113635.142 1       226.245          38.500  
G 9  24394726.993 1                      1823.600          23.000  
G14  20719674.079 1 108882639.441 1     -1907.460          40.000  
G17  21444537.466 1                       546.950          25.250  
G19  21426435.698 1                      1302.250          25.000  
G28  20324533.829 1 106806139.078 1      -267.659          36.000  
G30  24793711.781 1 130291812.818 1     -2394.123          34.250  
J 1  37433830.609 1                      -147.200          20.250                                                                  
J 2  35918640.853 1 188753777.810 1      -104.986          39.250    35916300.373 1 140943279.315 1       -78.379          30.250  
J 3  39487311.514 1 207507195.983 1       575.435          35.000    39484966.238 1                       430.350          25.500  
R 7  21150178.747 1                      1078.200          23.500  
R 8  22041999.252 1 118034035.845 1      3537.929          32.500  
R12  20262248.948 1                     -1456.150          25.750  
R21  23567473.988 1                     -1527.950          24.250  
R23  22657252.521 1 121201000.73111       992.885          26.750  
> 2021  5 18  7 21  1.4406725  0 20                     
E13  24313742.673 1                      -791.000          28.250                                                                  
E15  26672354.140 1 140164167.51111     -1581.200          29.250                                                                  
E21  24194805.411 1 127144553.622 1       284.822          36.750    24192686.178 1  94937294.326 1       212.677          27.750  
E26  25214008.332 1 132500550.468 1       637.236          37.750    25211890.598 1  98936864.588 1       475.723          34.000  
G 2  23562389.324 1 123821191.61011      1173.538          32.000  
G 3  23271966.579 1 122295009.47011     -2911.518          29.000  
G 6  21334481.672 1 112113408.341 1       226.081          41.000  
G14  20720035.744 1 108884548.171 1     -1910.671          40.750  
G19  21426194.181 1                      1304.450          23.000  
G28  20324582.511 1 106806407.309 1      -269.635          36.250  
G30  24794166.382 1 130294209.150 1     -2398.790          35.250  
J 1  37433842.417 1                      -143.900          25.000                                                                  
J 2  35918660.755 1 188753884.333 1      -108.709          39.500    35916320.575 1 140943358.886 1       -81.053          30.250  
J 3  39487197.408 1 207506619.659 1       576.177          34.750    39484859.327 1 154947068.87011       430.165          27.000  
R 7  21149930.034 1                      1075.900          23.500  
R 8  22041324.835 1 118030499.944 1      3533.474          35.000  
R12  20262529.369 1 108238794.31011     -1458.686          31.000  
R13  22159786.026 1                      2041.900          11.000  
R22  21487442.679 1                      -727.100          22.500  
R23  22657048.778 1 121200006.74311       994.040          32.500  
> 2021  5 18  7 21  2.4406725  0 19                     
E13  24313893.151 1 127770370.45211      -785.001          30.000                                                                  
E15  26672466.844 1                     -1575.750          28.250                                                                  
E21  24194753.829 1 127144268.310 1       288.568          37.250    24192631.299 1  94937081.240 1       215.841          28.000  
E26  25213880.003 1 132499912.574 1       641.121          36.000    25211768.865 1  98936388.151 1       479.423          35.000  
G 2  23562157.866 1 123820017.620 1      1177.164          29.500  
G 3  23272450.127 1 122297550.853 1     -2906.626          31.250  
G 6  21334435.487 1 112113181.418 1       230.520          40.250  
G14  20720402.972 1 108886459.030 1     -1907.951          40.500  
G17  21444371.779 1                       548.700          20.500  
G19  21425933.644 1                      1306.800          20.500  
G28  20324636.756 1 106806676.811 1      -266.411          35.000  
G30  24794631.942 1 130296608.419 1     -2396.360          35.500  
J 2  35918681.123 1 188753993.314 1      -106.032          38.750    35916341.243 1 140943440.241 1       -79.142          30.750  
J 3  39487093.663 1 207506042.500 1       581.071          37.250    39484748.386 1                       434.200          26.750  
R 7  21149640.418 1                      1077.100          21.500  
R 8  22040680.863 1 118026966.730 1      3536.101          36.000  
R12  20262839.937 1 108240252.919 1     -1455.617          30.750  
R21  23567988.230 1                     -1533.750          23.500  
R23  22656846.101 1 121199012.11011       998.831          27.000  
> 2021  5 18  7 21  3.4406724  0 20                     
E13  24314002.496 1                      -782.750          28.500                                                                  
E15  26672913.156 1 140167104.83311     -1573.301          29.500                                                                  
E21  24194665.012 1 127143818.700 1       290.374          37.000    24192544.580 1  94936745.407 1       217.454          23.750  
E26  25213735.424 1 132499109.90411       643.573          32.500    25211616.191 1  98935788.865 1       481.054          35.000  
G 2  23561903.563 1 123818679.757 1      1179.400          29.000  
G 3  23272966.291 1 122300296.78511     -2905.203          27.500  
G 4  25005142.230 1                      1087.300          27.250  
G 6  21334355.063 1 112112790.012 1       232.334          39.000  
G 9  24393615.381 1                      1822.900          22.250  
G14  20720731.166 1 108888206.305 1     -1905.783          41.250  
G17  21444182.531 1                       553.250          23.000  
G19  21425624.179 1 112592414.42011      1307.642          27.250  
G28  20324656.163 1 106806782.508 1      -264.517          35.000  
G30  24795056.969 1 130298843.849 1     -2393.017          34.000  
J 2  35918671.151 1 188753938.507 1      -103.324          38.750    35916330.672 1 140943399.310 1       -77.235          29.500  
J 3  39486940.989 1 207505300.300 1       583.173          34.750    39484609.204 1 154946086.56511       435.694          26.500  
R 8  22039974.473 1 118023266.756 1      3538.961          37.000  
R12  20263068.599 1 108241545.228 1     -1453.757          32.000  
R21  23568236.080 1 126118391.79811     -1527.446          29.500  
R23  22656641.563 1                      1001.900          23.000  
> 2021  5 18  7 21  4.4406724  0 22                     
E13  24314151.041 1                      -785.450          26.500                                                                  
E15  26673226.287 1 140168679.65711     -1573.803          30.500                                                                  
E21  24194612.396 1 127143530.331 1       287.982          36.500    24192488.666 1  94936530.070 1       215.170          24.250  
E26  25213613.856 1 132498468.239 1       641.274          35.000    25211492.824 1  98935309.719 1       478.999          34.000  
G 2  23561668.973 1 123817501.78911      1178.150          29.750  
G 3  23273624.782 1 122303723.01011     -2909.587          29.500  
G 4  25004941.217 1 131401852.80711      1090.733          26.750  
G 6  21334313.839 1 112112559.874 1       229.619          39.000  
G 9  24393371.797 1                      1828.850          23.750  
G14  20721097.060 1 108890113.208 1     -1906.342          40.500  
G17  21444077.152 1 112689385.33411       553.414          25.750  
G19  21425372.201 1 112591109.80211      1304.322          26.250  
G28  20324704.877 1 106807048.732 1      -266.147          35.000  
G30  24795507.704 1 130301236.468 1     -2390.731          36.000  
J 2  35918688.986 1 188754042.133 1      -102.296          39.250    35916352.104 1 140943476.681 1       -76.389          32.000  
J 3  39486838.008 1 207504719.380 1       580.447          36.000    39484496.329 1                       436.350          26.250  
R 7  21149309.215 1                      1077.100          20.500  
R 8  22039318.674 1 118019728.121 1      3539.907          37.250  
R12  20263329.866 1 108243000.49311     -1455.050          31.750  
R21  23568530.623 1 126119919.48911     -1526.776          30.250  
R22  21487736.227 1                      -723.800          19.250  
R23  22656456.139 1 121196762.94211       997.824          31.250  
> 2021  5 18  7 21  5.4406724  0 20                     
E13  24314310.596 1                      -784.250          25.500    24312195.860 1                      -588.850          16.500  
E15  26673518.051 1                     -1573.400          29.500                                                                  
E21  24194550.105 1 127143242.421 1       286.431          34.000    24192435.968 1  94936315.057 1       214.405          28.750  
E26  25213484.111 1 132497826.421 1       640.452          34.500    25211371.474 1  98934830.460 1       479.015          35.750  
G 2  23561460.983 1 123816323.35811      1177.076          28.750  
G 3  23274232.227 1 122306915.81711     -2907.347          30.000  
G 6  21334274.632 1 112112330.446 1       228.248          38.250  
G14  20721455.678 1 108892018.992 1     -1907.613          39.250  
G17  21443973.789 1 112688832.72211       551.683          30.000  
G19  21425111.147 1                      1299.000          23.500  
G28  20324756.207 1 106807314.716 1      -267.664          35.750  
G30  24795960.457 1 130303625.712 1     -2391.059          36.500  
J 2  35918707.639 1 188754143.496 1      -103.286          38.500    35916370.457 1 140943552.364 1       -77.103          32.000  
J 3  39486723.553 1 207504138.875 1       579.794          33.750    39484385.472 1 154945209.34611       433.049          27.500  
R 7  21149073.344 1                      1073.900          25.000  
R 8  22038658.897 1 118016187.087 1      3539.000          37.250  
R12  20263590.751 1 108244456.37111     -1456.951          34.000  
R21  23568819.689 1 126121444.62111     -1526.076          33.500  
R22  21487935.655 1                      -722.500          23.750  
R23  22656269.434 1 121195764.53411       996.616          34.000  
> 2021  5 18  7 21  6.4406724  0 19                     
E13  24314475.071 1                      -786.750          25.500                                                                  
E21  24194502.926 1 127142957.531 1       284.625          36.250    24192380.396 1  94936102.425 1       212.417          29.500  
E26  25213363.484 1 132497187.652 1       638.741          36.500    25211249.647 1  98934353.423 1       476.912          34.750  
G 2  23561242.324 1 123815148.55811      1174.080          29.500  
G 3  23274837.098 1 122310094.37611     -2909.413          28.000  
G 4  25004554.140 1                      1084.600          26.000  
G 6  21334227.154 1 112112103.432 1       227.063          41.250  
G 9  24392594.990 1                      1819.300          22.250  
G14  20721820.414 1 108893929.696 1     -1912.131          39.500  
G17  21443864.554 1 112688281.545 1       551.992          28.250  
G19  21424896.385 1                      1300.900          25.500  
G28  20324812.158 1 106807584.717 1      -270.796          35.250  
G30  24796417.829 1 130306020.746 1     -2397.162          38.250  
J 2  35918730.912 1 188754250.123 1      -108.461          39.000    35916388.034 1 140943632.037 1       -81.065          30.000  
J 3  39486613.419 1 207503560.266 1       579.036          34.500    39484275.937 1                       430.250          29.750  
R 8  22037994.446 1 118012651.659 1      3533.398          35.500  
R12  20263902.724 1 108245916.53011     -1460.691          31.500  
R21  23569093.288 1 126122974.86011     -1532.335          28.750  
R23  22656081.353 1 121194768.94411       996.344          33.500  
> 2021  5 18  7 21  7.4406724  0 20                     
E13  24314603.814 1                      -783.350          25.250                                                                  
E21  24194446.697 1 127142674.629 1       283.240          35.250    24192326.565 1  94935891.178 1       211.688          27.750  
E26  25213245.197 1 132496550.320 1       637.922          37.000    25211128.363 1  98933877.523 1       476.166          34.250  
G 2  23561008.617 1 123813976.460 1      1172.738          29.000  
G 3  23275381.353 1 122313006.23511     -2912.408          28.000  
G 6  21334182.617 1 112111877.926 1       225.961          40.500  
G14  20722183.595 1 108895844.225 1     -1914.116          40.250  
G17  21443779.844 1 112687731.01911       550.823          26.500  
G19  21424677.068 1                      1302.850          24.500  
G28  20324862.354 1 106807857.678 1      -272.681          36.000  
G30  24796873.645 1 130308420.497 1     -2399.047          37.500  
J 1  37434026.626 1                      -141.450          22.000                                                                  
J 2  35918749.031 1 188754360.949 1      -110.210          39.500    35916409.451 1 140943714.741 1       -82.416          30.500  
J 3  39486506.224 1 207502982.463 1       578.514          35.250    39484166.944 1 154944351.74911       432.182          29.750  
R 8  22037374.907 1 118009120.880 1      3531.340          36.000  
R12  20264158.279 1 108247379.546 1     -1462.687          33.250  
R13  22157551.510 1                      2037.600          17.500  
R21  23569391.114 1 126124508.42211     -1533.428          31.750  
R22  21488261.850 1                      -727.650          21.250  
R23  22655877.027 1 121193773.987 1       995.639          33.000  
> 2021  5 18  7 21  8.4406723  0 20                     
E13  24314722.627 1                      -788.100          26.000                                                                  
E15  26674367.779 1                     -1575.600          26.250                                                                  
E21  24194363.151 1 127142234.344 1       283.391          36.000    24192243.618 1  94935562.377 1       211.606          28.500  
E26  25213093.898 1 132495755.269 1       638.110          37.250    25210976.464 1  98933283.767 1       476.796          34.500  
G 2  23560754.489 1 123812646.78011      1173.145          29.500  
G 3  23275834.435 1 122315334.86211     -2910.946          26.000  
G 4  25004124.764 1                      1080.400          25.500  
G 6  21334114.959 1 112111494.886 1       226.234          40.250  
G14  20722520.357 1 108897601.244 1     -1913.806          40.000  
G17  21443626.146 1 112687022.40711       551.821          31.000  
G19  21424353.688 1                      1301.400          25.500  
G28  20324878.339 1 106807973.250 1      -272.418          36.250  
G30  24797309.340 1 130310661.901 1     -2397.554          36.250  
J 2  35918744.930 1 188754313.750 1      -109.192          39.500    35916401.452 1 140943679.573 1       -81.570          30.750  
J 3  39486364.518 1 207502246.752 1       579.151          33.750    39484026.737 1 154943802.308 1       432.472          30.000  
R 7  21148418.114 1                      1065.600          18.250  
R 8  22036644.708 1 118005429.073 1      3532.364          34.000  
R12  20264400.007 1 108248682.826 1     -1462.613          34.250  
R21  23569622.350 1 126125881.411 1     -1532.186          30.250  
R23  22655675.662 1 121192618.230 1       996.217          35.750  
> 2021  5 18  7 21  9.4406723  0 19                     
E13  24314876.394 1                      -786.800          28.000                                                                  
E21  24194309.161 1 127141949.286 1       282.784          36.000    24192188.429 1  94935349.536 1       211.652          28.750  
E26  25212971.555 1 132495115.137 1       637.942          35.250    25210855.020 1  98932805.718 1       476.492          36.250  
G 2  23560547.305 1 123811471.66511      1173.616          30.750  
G 6  21334065.166 1 112111267.116 1       225.620          39.750  
G 9  24391565.703 1                      1819.500          19.000  
G14  20722885.477 1 108899512.920 1     -1913.106          39.500  
G17  21443515.196 1 112686469.10011       550.764          28.250  
G19  21424110.829 1                      1301.200          24.750  
G28  20324934.973 1 106808243.864 1      -272.367          35.000  
G30  24797756.603 1 130313056.492 1     -2394.934          35.000  
J 2  35918763.490 1 188754420.485 1      -107.478          39.500    35916422.410 1 140943759.254 1       -80.206          32.250  
J 3  39486250.870 1 207501665.906 1       578.821          33.250    39483913.688 1 154943368.523 1       432.328          27.750  
R 7  21148243.008 1                      1072.450          24.750  
R 8  22035991.433 1 118001894.146 1      3534.272          36.750  
R12  20264672.791 1 108250143.21011     -1462.480          31.000  
R21  23569929.010 1 126127410.79211     -1528.435          28.250  
R22  21488470.574 1                      -722.200          24.000  
R23  22655503.853 1 121191620.512 1       995.504          34.000  
> 2021  5 18  7 21 10.4406723  0 22                     
E13  24315027.821 1 127776333.39611      -789.463          29.500                                                                  
E15  26674965.270 1                     -1573.550          26.000                                                                  
E21  24194257.628 1 127141669.051 1       281.737          35.500    24192137.496 1  94935140.330 1       210.480          29.250  
E26  25212849.272 1 132494479.487 1       637.079          36.500    25210733.337 1  98932331.030 1       475.559          35.500  
G 2  23560323.092 1                      1173.150          25.000  
G 3  23276976.949 1 122321339.31511     -2908.134          29.000  
G 6  21334028.624 1 112111044.154 1       224.281          36.250  
G 9  24391125.340 1 128176228.30111      1822.017          29.000  
G14  20723251.856 1 108901427.749 1     -1912.637          39.250  
G17  21443407.902 1 112685921.35611       548.396          28.000  
G19  21423883.319 1                      1297.050          21.750  
G28  20324984.770 1 106808518.621 1      -272.862          35.000  
G30  24798210.520 1 130315451.886 1     -2391.964          33.500  
J 2  35918783.908 1 188754529.208 1      -105.897          38.750    35916442.828 1 140943840.401 1       -78.904          32.000  
J 3  39486154.069 1 207501089.972 1       577.617          32.000    39483806.094 1                       432.500          27.250  
R 7  21148043.978 1                      1066.150          21.500  
R 8  22035338.517 1 117998361.048 1      3535.981          36.250  
R12  20264936.041 1 108251609.123 1     -1463.391          32.250  
R13  22156430.087 1                      2020.400          20.000  
R21  23570261.812 1 126129231.13511     -1528.375          31.500  
R22  21488553.648 1                      -723.600          25.000  
R23  22655292.832 1 121190627.43711       994.778          34.500  
> 2021  5 18  7 21 11.4406723  0 23                     
E13  24315177.009 1 127777121.96711      -791.121          28.750    24313063.772 1                      -591.500          17.000  
E15  26675293.134 1                     -1575.550          27.500                                                                  
E21  24194199.060 1 127141384.857 1       282.017          35.000    24192082.825 1  94934927.981 1       210.813          28.500  
E26  25212724.449 1 132493839.287 1       637.787          34.000    25210612.112 1  98931853.072 1       476.830          36.750  
G 2  23560095.741 1                      1174.200          24.500  
G 3  23277557.238 1 122324244.93111     -2906.216          30.500  
G 6  21333980.548 1 112110817.475 1       224.335          38.250  
G 9  24390779.270 1 128174401.979 1      1824.712          35.250  
G14  20723610.898 1 108903337.121 1     -1910.924          39.500  
G17  21443307.363 1 112685370.50511       547.771          29.250  
G19  21423605.602 1 112581807.18611      1298.956          26.000  
G28  20325037.425 1 106808788.788 1      -272.091          35.750  
G30  24798669.993 1 130317839.478 1     -2388.111          33.750  
J 1  37434031.715 1                      -138.800          22.000                                                                  
J 2  35918801.786 1 188754631.260 1      -103.059          39.000    35916461.307 1 140943916.640 1       -77.062          31.750  
J 3  39486039.439 1 207500510.048 1       577.803          33.250    39483695.362 1 154942500.41611       431.437          27.250  
R 7  21147824.421 1                      1066.250          22.250  
R 8  22034671.070 1 117994821.028 1      3538.856          37.500  
R12  20265240.521 1 108253068.82811     -1462.271          31.750  
R13  22155987.185 1                      2023.550          22.500  
R21  23570518.025 1 126130754.73511     -1524.984          31.750  
R22  21488788.277 1                      -731.050          23.750  
R23  22655099.356 1 121189631.17111       994.018          37.000  
> 2021  5 18  7 21 12.4406723  0 19                     
E13  24315328.265 1                      -789.400          26.000                                                                  
E21  24194145.858 1 127141104.727 1       279.992          34.750    24192029.623 1  94934718.827 1       209.074          28.250  
E26  25212607.392 1 132493203.083 1       636.321          35.000    25210491.456 1  98931377.978 1       474.994          34.750  
G 2  23559866.261 1 123807932.59911      1172.989          27.500  
G 3  23278084.134 1                     -2906.250          25.000  
G 6  21333940.537 1 112110595.012 1       222.284          37.500  
G 9  24390428.674 1 128172578.325 1      1823.754          36.250  
G14  20723979.204 1 108905249.431 1     -1912.497          39.500  
G17  21443206.494 1 112684824.776 1       545.801          29.500  
G19  21423384.816 1                      1299.500          22.250  
G28  20325088.850 1 106809062.719 1      -274.190          34.750  
G30  24799118.944 1 130320227.843 1     -2388.197          33.750  
J 2  35918824.732 1 188754735.192 1      -103.883          39.000    35916481.554 1 140943994.232 1       -77.760          30.750  
J 3  39485928.377 1 207499934.246 1       575.895          33.250    39483585.499 1                       430.250          26.000  
R 7  21147628.218 1                      1071.300          24.500  
R 8  22034009.589 1 117991283.006 1      3538.000          40.000  
R12  20265490.409 1 108254533.55911     -1464.500          33.500  
R21  23570795.195 1 126132280.46611     -1524.887          31.500  
R23  22654920.242 1 121188640.008 1       991.544          35.500  
> 2021  5 18  7 21 13.4406723  0 19                     
E13  24315475.585 1                      -790.600          23.750                                                                  
E21  24194097.713 1 127140826.690 1       277.899          34.250    24191976.381 1  94934511.223 1       207.660          27.750  
E26  25212491.194 1 132492568.606 1       634.451          36.250    25210369.562 1  98930904.108 1       473.822          34.000  
G 2  23559631.645 1                      1171.850          24.000  
G 6  21333899.287 1 112110374.216 1       221.025          37.500  
G 9  24390084.634 1 128170757.58411      1819.104          31.500  
G14  20724342.075 1 108907165.009 1     -1917.257          38.500  
G17  21443118.776 1 112684280.24711       545.358          26.500  
G19  21423160.093 1                      1301.950          22.250  
G28  20325142.935 1 106809339.237 1      -277.345          34.250  
G30  24799572.351 1 130322619.817 1     -2394.501          32.500  
J 2  35918843.140 1 188754842.484 1      -109.512          37.500    35916503.860 1 140944074.402 1       -81.762          31.250  
J 3  39485815.177 1 207499359.530 1       575.471          34.000    39483474.398 1 154941633.28411       429.858          25.250  
R 7  21147431.976 1                      1058.850          22.000  
R 8  22033348.668 1 117987748.489 1      3532.091          36.000  
R12  20265766.640 1 108256000.695 1     -1468.457          30.250  
R21  23571069.326 1                     -1531.200          25.750  
R22  21489075.461 1                      -729.750          20.000  
R23  22654743.486 1 121187649.195 1       991.822          34.750  
> 2021  5 18  7 21 14.4406722  0 19                     
E13  24315603.938 1                      -795.300          22.000                                                                  
E15  26676153.863 1                     -1576.750          24.750                                                                  
E21  24194006.318 1 127140390.224 1       278.018          33.000    24191891.582 1  94934185.241 1       207.677          28.750  
E26  25212328.149 1 132491775.159 1       635.091          34.250    25210218.210 1  98930311.634 1       474.241          34.500  
G 2  23559381.660 1 123805386.20211      1169.032          30.750  
G 6  21333823.482 1 112109994.052 1       221.945          37.000  
G 9  24389711.734 1 128168781.134 1      1816.756          30.500  
G14  20724675.486 1 108908924.902 1     -1919.549          37.500  
G17  21442893.974 1                       543.500          22.250  
G28  20325164.862 1 106809458.664 1      -278.457          33.000  
G30  24800002.596 1 130324858.195 1     -2398.897          29.000  
J 1  37434058.121 1                      -151.500          23.750                                                                  
J 2  35918832.990 1 188754795.078 1      -112.374          35.750    35916493.110 1 140944038.989 1       -84.245          30.500  
J 3  39485681.512 1 207498624.639 1       577.133          33.500    39483338.034 1                       433.150          25.500  
R 7  21147199.679 1 113202615.21911      1061.566          26.750  
R 8  22032667.282 1 117984056.775 1      3528.569          35.500  
R12  20265992.126 1 108257308.903 1     -1470.179          31.750  
R21  23571431.818 1                     -1529.950          23.000  
R23  22654533.673 1 121186495.300 1       993.407          30.250  
> 2021  5 18  7 21 15.4406722  0 22                     
E13                                                                  24313637.574 1                      -590.350          18.500  
E15  26676460.526 1 140185746.46511     -1579.226          29.250                                                                  
E21  24193957.727 1 127140111.608 1       278.717          31.250    24191838.494 1  94933977.117 1       208.507          29.500  
E26  25212211.204 1 132491139.240 1       636.139          35.250    25210097.967 1  98929836.758 1       475.249          35.500  
G 2  23559161.287 1 123804216.851 1      1169.565          28.750  
G 3  23279748.121 1                     -2914.750          24.500  
G 4  25002636.790 1                      1075.200          24.750  
G 6  21333781.485 1 112109771.391 1       223.008          36.250  
G 9  24389360.652 1 128166964.433 1      1817.190          30.250  
G14  20725037.310 1 108910844.599 1     -1919.567          38.000  
G19  21422604.594 1                      1293.550          20.500  
G28  20325212.503 1 106809737.004 1      -278.114          34.000  
G30  24800459.454 1 130327257.226 1     -2398.603          30.500  
J 1  37434107.562 1 196717518.18811      -147.207          26.500                                                                  
J 2  35918855.749 1 188754907.766 1      -112.280          37.250    35916514.070 1 140944123.110 1       -83.977          32.250  
J 3  39485563.068 1 207498046.514 1       578.753          34.000    39483229.184 1 154940671.75611       432.156          25.250  
R 7  21146992.197 1 113201553.560 1      1061.635          28.250  
R 8  22032004.416 1 117980528.483 1      3528.532          36.500  
R12  20266264.912 1 108258778.930 1     -1470.062          33.250  
R13  22154507.708 1                      2021.000          18.250  
R22  21489256.252 1                      -727.800          21.250  
R23  22654333.086 1 121185500.39111       994.812          31.500  
> 2021  5 18  7 21 16.4406722  0 17                     
E13  24315897.029 1                      -786.600          23.750                                                                  
E15  26676753.642 1 140187325.59611     -1578.999          31.500                                                                  
E21  24193904.283 1 127139833.971 1       277.807          33.250    24191787.148 1  94933769.813 1       207.551          28.500  
E26  25212096.303 1 132490503.946 1       635.755          35.750    25209977.670 1  98929362.390 1       474.762          37.250  
G 2  23558946.255 1 123803048.191 1      1168.900          29.000  
G 6  21333737.635 1 112109549.431 1       222.289          37.000  
G 9  24389025.403 1 128165148.235 1      1816.797          33.500  
G14  20725402.376 1 108912765.362 1     -1920.433          38.250  
G28  20325268.783 1 106810016.415 1      -279.171          35.750  
G30  24800920.454 1 130329656.571 1     -2398.575          33.750  
J 1  37434133.862 1 196717665.62711      -147.019          27.750                                                                  
J 2  35918874.255 1 188755021.146 1      -112.845          37.750    35916536.773 1 140944207.773 1       -84.336          32.750  
J 3  39485440.073 1 207497468.731 1       578.077          32.500    39483116.381 1                       429.600          25.750  
R 7  21146815.838 1 113200493.006 1      1060.900          30.000  
R 8  22031334.598 1 117977000.932 1      3528.164          37.000  
R12  20266560.426 1 108260250.185 1     -1471.007          32.750  
R23  22654149.233 1 121184505.82811       995.644          27.250  
> 2021  5 18  7 21 17.4406722  0 22                     
E13  24316045.506 1                      -790.400          24.000                                                                  
E15  26677063.707 1 140188903.59211     -1577.746          29.250                                                                  
E21  24193852.199 1 127139556.751 1       275.524          33.750    24191734.465 1  94933562.856 1       205.847          29.250  
E26  25211975.566 1 132489868.716 1       633.714          36.500    25209856.933 1  98928888.025 1       473.056          36.250  
G 2  23558728.086 1 123801879.35711      1167.583          31.000  
G 3  23280867.245 1                     -2914.850          27.250  
G 4  25002201.790 1                      1078.150          26.000  
G 6  21333695.744 1 112109328.019 1       219.490          36.250  
G 9  24388657.937 1 128163331.122 1      1816.811          30.750  
G14  20725775.398 1 108914685.851 1     -1921.128          37.750  
G17  21442654.413 1                       545.750          21.000  
G19  21422101.841 1                      1297.150          24.250  
G28  20325326.723 1 106810295.990 1      -280.768          34.750  
G30  24801374.420 1 130332054.162 1     -2396.738          33.500  
J 1  37434161.223 1 196717813.23411      -148.292          28.250                                                                  
J 2  35918899.817 1 188755133.400 1      -112.065          39.500    35916557.538 1 140944291.563 1       -83.614          32.000  
J 3  39485363.106 1 207496891.111 1       575.860          34.250    39483007.636 1 154939801.99911       430.049          27.500  
R 7  21146652.231 1 113199432.09611      1060.598          27.500  
R 8  22030687.127 1 117973472.255 1      3528.934          36.750  
R12  20266820.126 1 108261721.697 1     -1472.793          29.250  
R21  23572181.272 1                     -1534.550          22.750  
R23  22653982.028 1 121183511.60311       991.617          30.500  
> 2021  5 18  7 21 18.4406721  0 21                     
E13  24316178.378 1                      -789.100          25.750    24314057.646 1                      -590.400          18.500  
E21  24193771.619 1 127139125.279 1       276.300          35.500    24191654.484 1  94933240.547 1       206.287          30.000  
E26  25211824.535 1 132489078.813 1       634.629          36.750    25209705.902 1  98928298.166 1       474.009          36.000  
G 2  23558471.528 1 123800555.48811      1168.991          29.000  
G 3  23281370.061 1 122344425.36811     -2914.790          30.000  
G 6  21333632.851 1 112108952.427 1       220.303          39.000  
G 9  24388294.053 1 128161356.437 1      1820.105          29.750  
G14  20726106.733 1 108916449.850 1     -1919.014          38.000  
G17  21442537.558 1                       547.750          25.000  
G19  21421855.476 1                      1297.250          23.000  
G28  20325351.970 1 106810420.350 1      -279.541          35.500  
G30  24801800.489 1 130334292.301 1     -2392.438          32.750  
J 1  37434153.793 1 196717804.57611      -145.430          28.500                                                                  
J 2  35918886.091 1 188755087.716 1      -108.826          38.500    35916549.208 1 140944257.455 1       -81.301          31.500  
J 3  39485217.471 1 207496159.349 1       576.656          34.750    39482868.297 1                       430.350          27.750  
R 7  21146345.308 1                      1060.500          22.500  
R 8  22029991.073 1 117969782.453 1      3532.283          37.250  
R12  20267075.913 1 108263035.203 1     -1471.254          31.500  
R21  23572443.355 1 126140905.73011     -1529.725          31.750  
R22  21489551.011 1                      -730.050          18.500  
R23  22653731.766 1 121182361.97211       991.865          32.250  
> 2021  5 18  7 21 19.4406721  0 21                     
E13  24316321.104 1                      -789.450          27.000                                                                  
E15  26677637.898 1                     -1573.600          27.750                                                                  
E21  24193717.680 1 127138847.053 1       276.772          34.500    24191599.646 1  94933032.844 1       207.122          30.000  
E26  25211701.045 1 132488441.967 1       635.821          37.000    25209584.810 1  98927822.642 1       474.789          35.250  
G 2  23558218.227 1                      1167.350          23.000  
G 3  23281919.605 1 122347336.99311     -2913.813          32.250  
G 6  21333582.211 1 112108730.009 1       221.305          35.750  
G 9  24387942.121 1 128159535.106 1      1819.720          32.000  
G14  20726469.206 1 108918367.541 1     -1919.514          37.000  
G17  21442416.766 1 112680660.26911       548.376          26.250  
G19  21421618.664 1                      1301.850          22.000  
G28  20325403.858 1 106810698.364 1      -279.548          35.750  
G30  24802248.103 1 130336683.584 1     -2393.173          32.000  
J 1  37434157.714 1                      -143.200          25.000                                                                  
J 2  35918908.899 1 188755195.471 1      -109.599          38.250    35916570.218 1 140944337.908 1       -81.817          32.000  
J 3  39485096.979 1 207495580.328 1       578.278          34.250    39482757.998 1 154938822.23411       431.917          27.250  
R 7  21146169.054 1                      1062.700          24.000  
R 8  22029326.757 1 117966249.118 1      3531.346          37.750  
R12  20267355.644 1 108264505.220 1     -1471.660          30.750  
R21  23572720.088 1 126142433.31411     -1529.645          29.000  
R23  22653561.508 1 121181367.591 1       993.829          34.250  
> 2021  5 18  7 21 20.4406721  0 22                     
E13  24316481.858 1                      -789.600          25.750                                                                  
