     3.03           OBSERVATION DATA    M: Mixed            RINEX VERSION / TYPE
RTKCONV demo5 b33c                      20210524 111915 UTC PGM / RUN BY / DATE 
log: C:\Users\Ivan_PolyU_Dktp\Dropbox\HUAWEI Exp\20210521_  COMMENT             
format: RINEX                                               COMMENT             
                                                            MARKER NAME         
                                                            MARKER NUMBER       
                                                            MARKER TYPE         
                                                            OBSERVER / AGENCY   
                                                            REC # / TYPE / VERS 
                                                            ANT # / TYPE        
        0.0000        0.0000        0.0000                  APPROX POSITION XYZ 
        0.0000        0.0000        0.0000                  ANTENNA: DELTA H/E/N
G   11 C1C L1C D1C S1C C2L L2L D2L S2L C2S D2S S2S          SYS / # / OBS TYPES 
R    8 C1C L1C D1C S1C C2C L2C D2C S2C                      SYS / # / OBS TYPES 
E    8 C1C L1C D1C S1C C7Q L7Q D7Q S7Q                      SYS / # / OBS TYPES 
J    8 C1C L1C D1C S1C C2L L2L D2L S2L                      SYS / # / OBS TYPES 
S    4 C1C L1C D1C S1C                                      SYS / # / OBS TYPES 
C    8 C2I L2I D2I S2I C7I L7I D7I S7I                      SYS / # / OBS TYPES 
  2021     5    21     6    29    6.0040000     GPS         TIME OF FIRST OBS   
  2021     5    21     6    54   39.0050000     GPS         TIME OF LAST OBS    
G                                                           SYS / PHASE SHIFT   
R                                                           SYS / PHASE SHIFT   
E                                                           SYS / PHASE SHIFT   
J                                                           SYS / PHASE SHIFT   
S                                                           SYS / PHASE SHIFT   
C                                                           SYS / PHASE SHIFT   
  0                                                         GLONASS SLOT / FRQ #
 C1C    0.000 C1P    0.000 C2C    0.000 C2P    0.000        GLONASS COD/PHS/BIS 
                                                            END OF HEADER       
> 2021  5 21  6 42 54.0050000  0 25                     
G28  21758435.182 2                       216.460          32.000                                                                                                                  
G14  21659943.314 8                     -1445.878          28.000    21659941.577 2                     -1126.757          32.000                                                  
G17  22996502.741 9                       189.874          17.000    22996488.754 9                       166.893          10.000                                                  
C 7  37094198.610 2                      -590.011          33.000    37094184.089 2                      -457.136          32.000  
C34  24436736.812 9                      -704.380          17.000                                                                  
C10  37227778.020 1 193854804.070 4      -143.982          35.000    37227767.121 2                      -111.371          32.000  
C13  37931933.571 8                      -664.998          25.000    37931925.242 9                      -507.755          20.000  
C 8  37932515.686 4                     -1004.816          30.000    37932502.109 2                      -776.138          32.000  
R15  21412307.636 8                      -631.767          31.000    21412287.321 9                      -492.272          21.000  
R17  22477814.681 9                     -1166.448          15.000                                                                  
R14  22433402.162 9                     -4052.303          18.000                                                                  
R18  23599992.204 9                       251.778          22.000                                                                  
R 2  22856010.622 8                      1557.987          33.000    22856001.402 8                      1208.872          30.000  
G 3  23894740.823 9                     -2644.807          15.000                                                                                                                  
G 6  22855799.341 9                       295.206          19.000    22855778.978 9                       247.518          15.000                                                  
C23  26615842.384 8                       797.717          29.000                                                                  
C25  24763724.629 9                     -1653.906          24.000                                                                  
E21  25138725.058 9                     -1669.139          18.000    25138727.335 9                     -1279.138          16.000  
E 1  26353401.410 4                       927.541          30.000    26353401.806 2                       709.099          32.000  
E26  25064166.819 8                      -810.602          34.000    25064166.374 2                      -620.848          31.000  
J 1  38781198.327 8                      -484.432          29.000    38781197.034 8                      -374.642          30.000  
J 3  41007806.641 9                       -30.874          21.000    41007799.101 9                       -16.891          22.000  
J 2  37295116.501 9                      -355.813          19.000                                                                  
C12                                                                  24987798.333 9                     -1075.406          16.000  
J 7                                                                  37877894.813 9                      -371.092          21.000  
> 2021  5 21  6 42 55.0050000  0 24                     
G28  21758394.433 4                       214.937          32.000                                                                                                                  
G14  21660219.156 8                     -1444.605          29.000    21660216.309 2                     -1126.505          31.000                                                  
G17  22996471.870 9                       175.351          16.000                                                                                                                  
C 7  37094312.141 2                      -591.583          32.000    37094297.644 2                      -457.170          31.000  
C34  24436876.709 9                      -719.514          18.000                                                                  
C10  37227805.561 2 193854947.522 5      -143.768          34.000    37227794.651 2                      -110.986          32.000  
C13  37932063.457 9                      -660.988          24.000    37932055.369 9                      -510.344          17.000  
C 8  37932710.116 4                     -1003.728          33.000    37932694.811 2                      -775.933          32.000  
R15  21412425.965 9                      -628.866          31.000    21412407.153 9                      -489.672          20.000  
R17  22478032.242 9                     -1154.501          15.000                                                                  
R14  22434164.252 9                     -4068.087          18.000                                                                  
R18  23599944.539 9                       251.470          21.000                                                                  
R 2  22855716.569 8                      1555.441          38.000    22855710.986 8                      1209.243          32.000  
G 3  23895242.713 9                     -2644.807          15.000                                                                                                                  
G 6  22855743.989 9                       301.010          21.000    22855722.931 9                       212.213          16.000                                                  
C23  26615688.025 8                       797.233          28.000                                                                  
C25  24764046.057 9                     -1660.342          23.000                                                                  
E21  25139043.533 9                     -1672.347          19.000    25139046.539 9                     -1283.288          20.000  
E 1  26353225.095 4                       927.463          29.000    26353225.455 1                       710.613          31.000  
E26  25064319.525 8                      -809.944          34.000    25064320.682 2                      -620.750          32.000  
J 1  38781288.998 8                      -481.237          33.000    38781290.783 8                      -374.775          31.000  
J 2  37295183.214 9                      -357.243          18.000                                                                  
J 3                                                                  41007803.288 9                       -24.726          21.000  
J 7                                                                  37877984.382 9                      -363.535          23.000  
> 2021  5 21  6 42 56.0050000  0 25                     
G28  21758353.816 4                       212.349          32.000                                                                                                                  
G14  21660494.822 8                     -1445.366          33.000    21660491.093 2  88696099.445 5     -1125.426          36.000                                                  
G17  22996437.839 9                       206.601          13.000                                                                                                                  
G19  23198248.163 9                       943.452          20.000                                                                                                                  
C 7  37094425.838 2                      -591.570          34.000    37094411.384 2                      -457.450          31.000  
C34  24437013.238 9                      -718.140          18.000                                                                  
C10  37227833.156 2 193855091.212 5      -145.270          35.000    37227822.194 2                      -112.335          30.000  
C13  37932191.169 9                      -680.050          23.000    37932182.677 9                      -513.741          17.000  
C 8  37932902.457 8                     -1005.774          33.000    37932887.611 2                      -776.378          33.000  
R15  21412545.850 9                      -632.012          31.000    21412526.375 9                      -479.925          20.000  
R17  22478246.784 9                     -1152.486          16.000                                                                  
R14  22434927.543 9                     -4070.292          18.000                                                                  
R18  23599896.774 9                       263.597          22.000                                                                  
R 2  22855421.903 8                      1557.593          32.000    22855419.791 8                      1209.677          32.000  
G 3  23895745.010 9                     -2644.807          16.000                                                                                                                  
G 6  22855688.056 9                       283.475          23.000    22855668.564 9                       231.440          17.000                                                  
C23  26615534.951 8                       803.507          27.000                                                                  
C25  24764370.081 9                     -1653.274          21.000                                                                  
E21  25139362.872 9                     -1673.944          20.000    25139365.611 9                     -1267.919          20.000  
E 1  26353048.925 4                       926.358          29.000    26353048.927 2                       708.315          31.000  
E26  25064474.764 4 131714703.09615      -812.564          36.000    25064475.110 1                      -621.536          32.000  
J 1  38781380.461 8                      -479.820          35.000    38781379.969 4                      -372.801          31.000  
J 3  41007817.749 9                       -28.510          20.000    41007810.118 9                       -20.021          21.000  
J 2  37295252.263 9                      -371.246          19.000                                                                  
J 7                                                                  37878073.314 8                      -365.342          35.000  
> 2021  5 21  6 42 57.0050000  0 25                     
G28  21758313.326 2                       213.192          34.000                                                                                                                  
G14  21660766.062 4                     -1444.767          36.000    21660766.054 1  88697224.759 3     -1125.788          37.000                                                  
G19  23198065.694 9                       943.452          20.000                                                                                                                  
C 7  37094539.271 2                      -590.120          32.000    37094525.589 4                      -456.277          31.000  
C34  24437153.021 9                      -738.592          18.000                                                                  
C21  25185733.594 9                      -190.485          24.000                                                                  
C10  37227860.981 2 193855236.018 5      -145.062          35.000    37227850.085 2                      -111.597          32.000  
C13  37932319.406 9                      -664.717          20.000    37932310.425 9                      -508.331          16.000  
C 8  37933093.376 4                     -1008.492          33.000    37933080.840 2 152740796.208 5      -777.847          33.000  
R15  21412669.276 9                      -635.242          32.000    21412644.766 9                      -489.900          20.000  
R17  22478463.629 9                     -1148.110          18.000                                                                  
R18  23599849.655 9                       255.244          22.000                                                                  
R 2  22855130.728 8                      1558.654          35.000    22855126.296 8                      1213.357          27.000  
G 3  23896248.297 9                     -2645.905          15.000                                                                                                                  
G 6  22855636.460 9                       278.454          28.000    22855615.243 9                       218.409          20.000                                                  
C23  26615381.487 8                       789.395          30.000                                                                  
C25  24764690.051 9                     -1658.732          19.000                                                                  
E21  25139682.933 9                     -1669.318          27.000    25139684.577 9                     -1281.468          21.000  
E 1  26352872.875 4                       921.329          31.000    26352873.235 2                       705.773          31.000  
E26  25064629.444 4 131715516.478 4      -814.527          36.000    25064630.035 1                      -624.506          32.000  
J 1  38781471.237 4                      -476.932          34.000    38781471.658 4                      -370.585          31.000  
J 3  41007822.668 9                       -26.557          20.000    41007815.860 9                       -31.658          22.000  
J 2  37295319.784 9                      -359.167          20.000                                                                  
J 7  37878170.915 9                      -465.075          24.000    37878162.823 8                      -364.404          28.000  
G17                                                                  22996377.412 9                       148.443          13.000                                                  
> 2021  5 21  6 42 58.0050000  0 25                     
G28  21758273.109 2                       212.030          33.000                                                                                                                  
G14  21661043.907 4                     -1444.244          35.000    21661040.891 1  88698350.238 3     -1126.030          38.000                                                  
G17  22996368.253 9                       191.207          19.000    22996343.209 9                       149.056          15.000                                                  
G19  23197883.905 9                       943.452          20.000                                                                                                                  
C 7  37094652.653 2                      -589.748          33.000    37094639.374 4                      -456.424          32.000  
C34  24437292.322 9                      -720.570          21.000                                                                  
C21  25185769.594 9                      -181.220          25.000                                                                  
C10  37227888.834 1 193855381.289 4      -145.703          36.000    37227878.143 2                      -113.666          32.000  
C13  37932447.987 9                      -648.636          19.000    37932436.515 9                      -500.627          16.000  
C 8  37933286.196 4                     -1006.637          32.000    37933274.013 2 152741574.133 5      -777.885          33.000  
R15  21412788.801 9                      -636.646          27.000    21412765.453 9                      -479.921          20.000  
R17  22478680.411 9                     -1173.664          19.000                                                                  
R18  23599802.836 9                       246.542          24.000                                                                  
R 2  22854836.990 4 121957811.23615      1556.478          36.000    22854835.453 8                      1210.874          28.000  
G 3  23896750.066 9                     -2663.361          15.000                                                                                                                  
G 6  22855582.061 8                       285.490          27.000    22855561.046 9                       204.937          19.000                                                  
C23  26615228.283 8                       791.662          30.000                                                                  
C25  24765008.673 9                     -1649.283          18.000                                                                  
E21  25140002.401 9                     -1673.383          19.000    25140004.867 9                     -1285.298          22.000  
E 1  26352697.492 2                       921.528          33.000    26352697.913 1                       704.977          31.000  
E26  25064785.248 4 131716330.840 4      -814.729          37.000    25064784.995 1 100925502.408 5      -623.966          32.000  
J 1  38781562.307 4                      -477.583          34.000    38781563.162 4 158804011.29415      -371.886          32.000  
J 3  41007828.640 9                       -26.557          21.000    41007821.678 9                       -15.508          22.000  
J 2  37295387.298 9                      -373.842          20.000                                                                  
J 7                                                                  37878250.627 8                      -364.173          29.000  
> 2021  5 21  6 42 59.0050000  0 25                     
G28  21758232.725 2 114340276.41015       210.408          33.000                                                                                                                  
G14  21661317.315 8                     -1446.066          33.000    21661315.795 1  88699476.372 3     -1126.731          36.000                                                  
G17  22996331.364 9                       181.022          23.000    22996309.466 9                       155.907          18.000                                                  
G19  23197704.751 9                       943.452          22.000                                                                                                                  
C 7  37094765.977 2 193162174.035 5      -590.500          33.000    37094751.594 4 149365195.97135      -457.940          33.000  
C34  24437430.796 9                      -718.858          22.000                                                                  
C10  37227916.831 1 193855526.658 4      -145.477          36.000    37227906.115 2                      -112.262          32.000  
C13  37932576.325 9                      -670.836          20.000    37932564.356 9                      -506.267          16.000  
C 8  37933478.453 4                     -1004.720          31.000    37933467.260 2 152742352.094 5      -778.042          33.000  
R15  21412908.134 9                      -636.585          26.000    21412882.859 9                      -489.166          20.000  
R17  22478898.308 9                     -1168.385          21.000                                                                  
R14  22437219.349 9                     -4065.010          19.000                                                                  
R18  23599755.984 9                       245.643          24.000                                                                  
R 2  22854545.200 4 121956254.308 4      1556.265          36.000    22854543.607 8                      1211.846          31.000  
G 3  23897255.974 9                     -2663.361          16.000                                                                                                                  
G 6  22855530.505 9                       284.745          25.000    22855506.937 9                       230.042          20.000                                                  
C23  26615079.329 4                       790.338          30.000                                                                  
C25  24765327.068 9                     -1656.366          20.000                                                                  
E21  25140322.230 9                     -1672.740          19.000    25140324.009 9                     -1287.994          21.000  
E 1  26352522.332 2                       922.448          32.000    26352522.500 1                       706.181          32.000  
E26  25064939.268 2 131717144.970 4      -814.258          37.000    25064939.721 1 100926126.194 5      -624.121          32.000  
J 1  38781653.044 4 203798960.15335      -477.233          34.000    38781654.244 4                      -371.919          31.000  
J 3  41007833.743 9                       -26.557          22.000    41007825.885 9                       -24.153          23.000  
J 2  37295455.940 9                      -357.650          21.000                                                                  
J 7                                                                  37878339.337 8                      -364.032          29.000  
> 2021  5 21  6 43  0.0050000  0 27                     
G28  21758192.600 2                       210.568          32.000                                                                                                                  
G14  21661593.320 8                     -1446.560          35.000    21661590.846 1  88700602.587 3     -1126.829          36.000                                                  
G17  22996297.343 9                       187.056          22.000    22996272.109 9                       147.378          17.000                                                  
G19  23197524.096 9                       943.452          21.000                                                                                                                  
C 7  37094879.235 2 193162764.533 5      -589.623          34.000    37094864.617 4                      -455.286          32.000  
C34  24437570.250 9                      -716.959          21.000                                                                  
C21  25185839.009 9                      -184.681          25.000                                                                  
C10  37227944.763 1 193855672.312 4      -146.558          37.000    37227934.038 2                      -113.239          32.000  
C13  37932703.451 9                      -671.088          22.000    37932691.018 9                      -509.293          19.000  
C 8  37933672.405 4                     -1007.825          32.000    37933660.435 2 152743130.321 5      -778.551          33.000  
R15  21413027.935 9                      -621.862          24.000    21412999.884 9                      -489.838          19.000  
R17  22479116.516 9                     -1164.566          22.000                                                                  
R14  22437983.669 9                     -4079.455          17.000                                                                  
R18  23599710.588 9                       247.129          25.000                                                                  
R 2  22854253.352 4 121954697.166 4      1558.042          37.000    22854251.965 4                      1210.764          30.000  
G 3  23897759.452 9                     -2648.713          16.000                                                                                                                  
G 6  22855480.328 9                       268.345          23.000    22855452.610 9                       236.600          18.000                                                  
S37  37878443.227 9                      -469.875          32.000  
C23  26614928.635 4                       786.993          33.000                                                                  
C25  24765648.169 9                     -1652.996          19.000                                                                  
E21  25140643.101 9                     -1682.150          20.000    25140641.301 9                     -1288.611          20.000  
E 1  26352347.338 2 138482503.011 5       919.571          34.000    26352347.461 1 106109981.854 5       703.812          33.000  
E26  25065093.914 2 131717959.753 4      -816.145          35.000    25065094.677 1 100926750.553 5      -625.406          31.000  
J 1  38781743.899 4                      -474.310          33.000    38781744.796 4                      -370.770          32.000  
J 3  41007839.833 9                       -26.557          21.000    41007829.911 9                       -17.845          22.000  
J 2  37295523.176 9                      -360.135          21.000                                                                  
J 7  37878430.653 9                      -465.227          30.000    37878427.822 4 155105830.46515      -363.530          34.000  
> 2021  5 21  6 43  1.0050000  0 27                     
G28  21758152.725 2                       209.374          33.000                                                                                                                  
G14  21661867.827 4                     -1446.957          32.000    21661865.853 2  88701728.653 4     -1126.445          36.000                                                  
G17  22996262.166 9                       192.102          20.000    22996237.490 9                       147.378          15.000                                                  
G19  23197348.117 9                       943.452          21.000                                                                                                                  
C 7  37094992.553 2                      -589.799          33.000    37094977.705 4                      -454.651          32.000  
C34  24437708.836 9                      -715.143          19.000                                                                  
C21  25185867.995 8                      -180.029          32.000                                                                  
C10  37227972.874 1 193855818.797 4      -147.302          36.000    37227962.312 2                      -113.513          32.000  
C13  37932828.108 8                      -668.965          24.000    37932819.443 9                      -516.247          20.000  
C 8  37933865.530 4                     -1007.116          32.000    37933853.887 2                      -779.275          33.000  
R15  21413153.995 9                      -637.725          24.000    21413120.188 9                      -497.424          18.000  
R17  22479335.853 9                     -1171.529          22.000                                                                  
R14  22438747.992 9                     -4058.213          19.000                                                                  
R18  23599664.699 9                       300.377          23.000                                                                  
R 2  22853961.112 4                      1559.851          31.000    22853959.806 4                      1212.936          29.000  
G 3  23898265.283 9                     -2642.487          16.000                                                                                                                  
G 6  22855427.707 9                       281.726          22.000    22855398.323 9                       213.849          18.000                                                  
S37  37878522.701 9                      -463.623          35.000  
C23  26614777.842 4 138590116.70535       784.847          33.000                                                                  
C25  24765970.088 9                     -1666.167          21.000                                                                  
E21  25140962.536 9                     -1674.296          22.000    25140955.084 9                     -1292.689          22.000  
E 1  26352172.676 1 138481585.320 5       915.425          34.000    26352172.758 1 106109278.674 5       701.323          32.000  
E26  25065249.306 1 131718776.668 4      -817.835          35.000    25065250.061 1                      -626.941          31.000  
J 1  38781835.256 4 203799910.251 5      -472.509          32.000    38781834.830 2                      -367.494          32.000  
J 3  41007847.313 9                       -26.557          21.000    41007836.751 9                       -15.945          21.000  
J 2  37295591.278 9                      -369.768          21.000                                                                  
J 7  37878517.900 9                      -464.192          29.000    37878516.949 4 155106192.316 5      -361.143          34.000  
> 2021  5 21  6 43  2.0050000  0 27                     
G28  21758113.091 2 114339646.073 5       209.212          32.000                                                                                                                  
G14  21662142.486 4                     -1444.335          32.000    21662140.820 2  88702854.528 4     -1125.698          37.000                                                  
G17  22996226.691 9                       179.046          19.000    22996203.891 9                       157.179          13.000                                                  
G19  23197169.371 9                       943.452          21.000                                                                                                                  
C 7  37095105.641 2                      -588.656          33.000    37095091.003 4                      -454.906          32.000  
C34  24437847.212 9                      -723.277          18.000                                                                  
C21  25185888.869 8                      -180.493          34.000                                                                  
C10  37228001.292 1 193855966.152 4      -147.192          36.000    37227990.672 2                      -114.484          32.000  
C13  37932959.273 8                      -673.883          25.000    37932948.588 9                      -510.704          20.000  
C 8  37934059.498 4                     -1008.541          32.000    37934047.629 2                      -779.009          32.000  
R15  21413274.272 9                      -644.170          22.000    21413241.729 9                      -507.484          18.000  
R17  22479552.782 9                     -1153.986          20.000                                                                  
R14  22439511.041 9                     -4071.058          19.000                                                                  
R18  23599618.791 9                       242.720          24.000                                                                  
R 2  22853670.775 9                      1560.779          31.000    22853665.857 9                      1222.457          20.000  
G 3  23898767.518 9                     -2639.680          17.000                                                                                                                  
G 6  22855373.246 9                       278.635          25.000    22855345.630 9                       216.291          17.000                                                  
S37  37878606.382 9                      -461.822          31.000  
C23  26614628.898 4                       781.052          33.000                                                                  
C25  24766290.097 9                     -1671.854          20.000                                                                  
E21  25141279.567 9                     -1676.485          30.000    25141276.388 9                     -1277.152          23.000  
E 1  26351998.622 1 138480670.301 5       914.384          33.000    26351998.603 1 106108577.513 5       701.373          32.000  
E26  25065405.157 2 131719595.759 5      -818.722          33.000    25065405.677 2                      -627.036          30.000  
J 1  38781924.777 4                      -470.427          31.000    38781924.383 2                      -365.221          31.000  
J 3  41007852.300 9                       -26.557          20.000    41007842.374 9                        -7.788          21.000  
J 2  37295657.198 9                      -355.378          22.000                                                                  
J 7  37878604.610 8                      -462.078          29.000    37878604.402 4 155106552.958 5      -359.232          36.000  
> 2021  5 21  6 43  3.0050000  0 27                     
G28  21758073.338 2                       207.302          32.000                                                                                                                  
G14  21662417.564 2 113836777.79115     -1445.368          33.000    21662415.874 1  88703980.682 4     -1127.221          35.000                                                  
G17  22996193.931 9                       176.476          18.000    22996166.903 9                       134.704          14.000                                                  
G19  23196995.248 9                       933.442          21.000                                                                                                                  
C 7  37095218.716 2 193164531.414 5      -588.363          34.000    37095204.242 2                      -456.183          32.000  
C34  24437987.047 9                      -721.722          21.000                                                                  
C21  25185925.266 4 131149785.37635      -182.208          37.000                                                                  
C10  37228029.733 1 193856113.510 4      -148.193          36.000    37228019.008 2                      -114.557          32.000  
C13  37933088.516 9                      -665.478          22.000    37933079.015 9                      -521.319          19.000  
C 8  37934253.705 4                     -1008.907          32.000    37934241.384 2 152745469.512 5      -780.737          32.000  
R15  21413391.561 9                      -639.597          29.000    21413363.613 9                      -500.669          18.000  
R17  22479770.810 9                     -1154.545          21.000                                                                  
R14  22440273.566 9                     -4056.529          20.000                                                                  
R18  23599575.279 9                       240.294          25.000                                                                  
R 2  22853374.996 9                      1561.127          30.000    22853371.437 9                      1214.333          25.000  
G 3  23899267.433 9                     -2651.521          19.000                                                                                                                  
G 6  22855316.701 9                       277.012          30.000    22855292.605 9                       229.777          16.000                                                  
S37  37878692.649 8                      -462.308          32.000  
C23  26614477.826 4                       781.220          32.000                                                                  
C25  24766614.186 9                     -1701.871          18.000                                                                  
E21  25141600.027 9                     -1679.391          22.000    25141595.494 9                     -1289.962          21.000  
E 1  26351824.609 1 138479755.665 5       914.607          33.000    26351824.587 1 106107876.804 5       700.783          32.000  
E26  25065560.981 1 131720414.921 4      -819.369          32.000    25065561.555 2                      -627.881          31.000  
J 1  38782014.405 4                      -471.066          31.000    38782014.049 2                      -367.034          32.000  
J 3  41007856.784 9                       -26.557          21.000    41007847.656 9                       -25.179          22.000  
J 2  37295708.970 9                      -355.768          33.000    37295715.350 9 152719718.91215      -277.057          36.000  
J 7  37878695.004 8                      -463.527          29.000    37878692.282 2 155106913.280 5      -360.282          34.000  
> 2021  5 21  6 43  4.0050000  0 27                     
G28  21758033.795 2                       208.163          33.000                                                                                                                  
G14  21662692.953 4                     -1446.092          33.000    21662691.089 1  88705107.587 4     -1127.088          36.000                                                  
G19  23196816.960 9                       933.442          22.000                                                                                                                  
C 7  37095331.965 1 193165120.524 4      -588.392          34.000    37095317.453 2                      -455.593          33.000  
C34  24438122.155 9                      -720.382          24.000                                                                  
C21  25185961.681 4 131149967.07514      -181.097          39.000                                                                  
C10  37228058.139 1 193856261.029 4      -147.168          36.000    37228047.231 2 149901919.806 5      -112.946          32.000  
C13  37933214.850 9                      -665.330          20.000    37933207.706 9                      -499.798          17.000  
C 8  37934447.565 2                     -1008.929          31.000    37934435.137 2 152746249.595 5      -780.420          33.000  
R15  21413511.040 9                      -643.883          29.000    21413484.656 9                      -521.968          19.000  
R17  22479988.618 9                     -1154.599          21.000                                                                  
R14  22441034.756 9                     -4068.519          21.000                                                                  
R18  23599529.392 9                       242.471          26.000                                                                  
R 2  22853086.058 8                      1558.815          34.000    22853078.950 9                      1212.701          27.000  
G 3  23899768.825 9                     -2651.521          21.000                                                                                                                  
G 6  22855263.588 8                       275.024          29.000    22855239.598 9                       222.771          16.000                                                  
S37  37878780.266 9                      -462.061          32.000  
C23  26614327.325 4                       782.271          31.000                                                                  
C25  24766936.725 9                     -1666.926          16.000                                                                  
E21  25141920.271 9                     -1684.439          22.000    25141914.498 9                     -1285.784          21.000  
E 1  26351650.621 2                       915.204          34.000    26351650.634 1 106107176.087 5       700.849          33.000  
E26  25065716.919 1 131721234.071 5      -818.913          34.000    25065717.423 2                      -627.646          31.000  
J 1  38782104.081 9                      -463.916          31.000    38782103.794 2                      -367.770          32.000  
J 3  41007862.352 9                       -26.557          23.000    41007853.309 9                       -21.859          28.000  
J 2  37295767.634 8                      -354.492          35.000    37295770.708 8 152719996.181 4      -276.904          36.000  
J 7  37878782.395 8                      -463.531          29.000    37878780.416 2 155107273.997 5      -359.591          35.000  
G17                                                                  22996131.800 9                       167.625          15.000                                                  
> 2021  5 21  6 43  5.0050000  0 27                     
G28  21757994.420 2                       206.667          33.000                                                                                                                  
G14  21662970.709 4                     -1445.612          33.000    21662966.283 1  88706234.595 4     -1126.393          36.000                                                  
G17  22996124.633 9                       179.215          22.000    22996098.466 9                       138.289          15.000                                                  
G19  23196640.272 9                       933.442          21.000                                                                                                                  
C 7  37095444.991 2 193165709.199 5      -587.945          34.000    37095430.675 2                      -454.322          32.000  
C34  24438261.421 9                      -731.082          22.000                                                                  
C21  25185995.814 8                      -181.006          27.000                                                                  
C10  37228086.674 1 193856409.357 3      -148.901          36.000    37228075.943 2 149902034.503 5      -114.648          32.000  
C13  37933345.557 9                      -676.114          18.000    37933334.493 9                      -514.404          16.000  
C 8  37934641.293 2                     -1009.878          32.000    37934629.109 2 152747030.439 5      -781.737          33.000  
R15  21413631.796 9                      -652.087          19.000    21413606.476 9                      -491.402          18.000  
R17  22480207.169 9                     -1149.470          21.000                                                                  
R14  22441795.818 9                     -4063.240          30.000                                                                  
R18  23599484.835 9                       235.615          26.000                                                                  
R 2  22852792.385 8                      1563.189          27.000    22852786.157 9                      1216.768          25.000  
G 3  23900263.857 9                     -2651.521          30.000    23900252.614 9                     -2067.544          30.000                                                  
G 6  22855211.083 9                       275.012          19.000    22855186.621 9                       239.402          15.000                                                  
S37  37878867.854 4                      -460.703          33.000  
C23  26614177.634 4                       776.963          31.000                                                                  
C25  24767258.243 9                     -1638.122          16.000                                                                  
E21  25142241.022 9                     -1684.061          22.000    25142232.138 9                     -1281.800          23.000  
E 1  26351477.239 1 138477928.982 5       911.097          34.000    26351477.043 1                       698.164          32.000  
E26  25065873.076 1 131722054.734 5      -821.604          34.000    25065873.581 1                      -629.334          32.000  
J 1  38782193.246 8                      -468.094          31.000    38782193.062 4                      -364.803          31.000  
J 3  41007867.465 9                       -26.557          31.000    41007858.821 8                       -21.331          29.000  
J 2  37295831.428 4                      -354.266          35.000    37295833.447 8 152720272.639 4      -275.787          36.000  
J 7  37878870.688 8                      -461.031          29.000    37878868.232 2 155107633.912 5      -358.815          36.000  
> 2021  5 21  6 43  6.0050000  0 29                     
G28  21757955.163 2 114338815.850 5       205.810          33.000                                                                                                                  
G14  21663242.969 4                     -1445.150          34.000    21663241.366 2  88707361.351 5     -1126.135          36.000                                                  
G17  22996088.380 9                       172.018          20.000    22996063.927 9                       145.352          15.000                                                  
G19  23196463.283 9                       933.442          22.000                                                                                                                  
C 7  37095557.899 1 193166296.751 4      -586.333          34.000    37095543.503 2                      -454.417          32.000  
C34  24438399.400 9                      -713.324          20.000                                                                  
C21  25186035.092 9                      -165.141          25.000                                                                  
C10  37228115.353 1 193856558.454 3      -149.469          36.000    37228104.652 2 149902149.822 5      -116.040          32.000  
C13  37933474.508 9                      -672.483          21.000    37933464.662 9                      -520.921          15.000  
C 8  37934835.687 2                     -1010.698          31.000    37934823.282 2 152747812.218 5      -781.804          34.000  
R15  21413750.467 9                      -650.189          28.000    21413727.754 9                      -500.783          17.000  
R17  22480426.261 9                     -1145.091          22.000                                                                  
R14  22442545.995 9                     -4060.650          37.000    22442517.580 9                     -3157.751          32.000  
R18  23599440.439 9                       233.238          27.000                                                                  
R 2  22852500.170 9                      1566.377          27.000    22852494.810 9                      1211.079          23.000  
G 3  23900746.585 9                     -2652.431          34.000    23900735.347 9                     -2066.940          33.000                                                  
G 6  22855160.249 9                       271.323          20.000    22855131.217 9                       221.123          15.000                                                  
G30  25424840.956 9                     -3093.213          34.000                                                                    25424835.772 9     -2408.179          30.000  
S37  37878955.257 2                      -458.879          33.000  
C23  26614026.830 4                       773.506          31.000                                                                  
C25  24767578.733 9                     -1671.005          19.000                                                                  
E21  25142550.866 9                     -1676.543          31.000    25142547.525 8                     -1285.048          34.000  
E 1  26351304.130 1 138477019.832 5       908.310          34.000    26351303.967 1 106105780.477 5       695.708          32.000  
E26  25066030.000 1 131722877.760 4      -823.928          37.000    25066030.317 1                      -630.919          31.000  
J 1  38782281.708 8                      -467.297          29.000    38782281.766 4                      -361.621          29.000  
J 3  41007866.164 9                       -26.557          36.000    41007860.186 8                       -21.147          33.000  
J 2  37295895.598 4 195991253.31935      -350.848          35.000    37295898.802 4 152720547.337 4      -273.468          36.000  
J 7  37878954.717 8                      -458.402          30.000    37878955.630 2 155107992.301 4      -357.319          36.000  
C12                                                                  24990982.046 9                     -1074.782          36.000  
> 2021  5 21  6 43  7.0050000  0 30                     
G28  21757916.113 2 114338610.366 5       204.893          34.000                                                                                                                  
G14  21663521.015 4 113842570.85515     -1447.821          34.000    21663516.647 1  88708488.491 4     -1127.979          36.000                                                  
G17  22996053.804 9                       177.478          19.000    22996031.890 9                       144.236          14.000                                                  
G19  23196287.218 9                       933.442          22.000                                                                                                                  
C 7  37095670.691 1 193166884.238 4      -588.452          35.000    37095656.307 2 149368837.66015      -455.245          32.000  
C34  24438538.764 9                      -750.663          19.000                                                                  
C21  25186072.380 9                      -176.375          22.000                                                                  
C10  37228143.971 1 193856707.984 3      -150.256          36.000    37228133.465 2 149902265.427 5      -115.619          32.000  
C13  37933603.914 9                      -674.783          20.000    37933591.461 9                      -505.732          16.000  
C 8  37935030.006 2 197537666.99515     -1011.841          33.000    37935017.554 1 152748594.436 4      -783.060          34.000  
R15  21413866.594 9                      -651.136          27.000    21413850.836 9                      -507.716          16.000  
R17  22480641.284 9                     -1147.774          22.000                                                                  
R14  22443299.121 8                     -4062.164          37.000    22443285.076 9                     -3159.064          32.000  
R18  23599396.858 9                       236.941          25.000                                                                  
R 2  22852204.467 9                      1562.396          27.000    22852203.479 9                      1220.974          20.000  
G 3  23901239.078 8                     -2658.557          30.000    23901233.532 9                     -2073.438          29.000                                                  
G 6  22855110.880 9                       270.551          29.000    22855077.366 9                       225.540          17.000                                                  
G30  25425425.564 9                     -3094.904          33.000    25425424.475 9                     -2410.492          29.000                                                  
S37  37879042.589 2                      -460.793          33.000  
C23  26613878.563 4                       773.900          31.000                                                                  
C25  24767899.679 9                     -1667.424          19.000                                                                  
E21  25142865.186 8                     -1678.362          32.000    25142867.031 4 101239905.28015     -1286.711          34.000  
E 1  26351131.474 1 138476111.975 4       907.323          34.000    26351131.209 1 106105084.787 4       695.791          33.000  
E26  25066186.815 1 131723701.644 4      -823.935          36.000    25066186.973 1                      -631.782          31.000  
J 1  38782369.812 9                      -456.343          26.000    38782370.611 4                      -363.323          27.000  
J 3  41007865.526 8                       -27.323          35.000    41007864.423 8                       -21.945          32.000  
J 2  37295961.802 4 195991601.50025      -352.710          35.000    37295965.710 4 152720821.844 5      -274.994          33.000  
E13  26966970.450 9                     -2093.803          33.000                                                                  
J 7  37879044.581 8                      -460.660          30.000    37879042.999 2 155108350.390 4      -358.698          35.000  
C12                                                                  24991239.034 8                     -1075.058          36.000  
> 2021  5 21  6 43  8.0050000  0 28                     
G28  21757877.275 2 114338405.738 4       204.260          34.000                                                                                                                  
G14  21663793.255 4 113844018.454 5     -1447.250          34.000    21663792.099 1  88709616.518 3     -1127.999          36.000                                                  
G17  22996018.187 9                       199.770          20.000    22995999.218 9                       131.300          13.000                                                  
G19  23196111.914 9                       933.442          23.000                                                                                                                  
C 7  37095783.674 2 193167472.447 5      -587.754          34.000    37095769.254 2                      -454.815          32.000  
C34  24438671.787 9                      -725.627          33.000                                                                  
C21  25186110.327 9                      -198.332          19.000                                                                  
C10  37228172.649 1 193856857.876 4      -150.671          36.000    37228162.060 2 149902381.323 5      -115.417          33.000  
C13  37933730.899 9                      -676.971          19.000    37933721.800 9                      -516.244          16.000  
C 8  37935224.281 2 197538678.745 5     -1012.205          32.000    37935211.886 2 152749376.836 5      -784.058          33.000  
R15  21413989.414 9                      -653.592          30.000    21413971.853 9                      -489.245          18.000  
R14  22444055.371 8                     -4061.017          36.000    22444047.716 8                     -3159.143          32.000  
R18  23599349.576 9                       239.450          24.000                                                                  
R 2  22851914.920 9                      1561.872          26.000    22851909.716 9                      1206.311          21.000  
G 6  22855059.320 9                       268.738          28.000    22855022.395 9                       237.472          18.000                                                  
G30  25426018.501 9                     -3089.026          28.000                                                                                                                  
S37  37879129.973 2 199056173.62635      -459.829          32.000  
C23  26613730.967 4                       773.325          32.000                                                                  
C25  24768218.439 9                     -1650.077          20.000                                                                  
E21  25143183.969 8                     -1678.673          32.000    25143185.667 2 101241191.478 4     -1286.393          34.000  
E 1  26350958.598 1 138475204.166 4       907.289          34.000    26350958.454 1 106104389.258 5       694.995          32.000  
E26  25066343.680 1 131724525.441 4      -824.013          36.000    25066343.763 1                      -632.050          31.000  
J 1  38782459.777 9                      -472.753          23.000    38782459.444 9                      -366.479          25.000  
J 3  41007866.477 4                       -27.756          35.000    41007868.738 8                       -21.055          32.000  
J 2  37296028.153 4 195991954.60325      -352.069          36.000    37296032.053 4                      -274.866          36.000  
E13  26967367.500 9                     -2094.368          33.000                                                                  
J 7  37879129.510 8                      -459.708          29.000    37879130.493 2 155108708.995 4      -358.326          36.000  
C12                                                                  24991504.459 8                     -1076.259          28.000  
> 2021  5 21  6 43  9.0050000  0 27                     
G28  21757838.568 2 114338202.162 5       203.790          34.000                                                                                                                  
G14  21664068.666 4 113845466.682 5     -1447.679          34.000    21664067.702 1  88710745.016 3     -1128.804          36.000                                                  
